# LAS WORX (tm) v19.05.17 Header Hash (-8291391322489380521) Data Hash (-686710286087721855) DO NOT REMOVE THIS LINE
~VERSION INFORMATION SECTION
VERS. 2.00 : CWLS LOG ASCII STANDARD - VERSION 2.000000
WRAP. NO   : ONE LINE PER DEPTH STEP
#
#MNEM UNIT                   VALUE/NAME                            DESCRIPTION      
#---- ---- -----------------------------------------------   -----------------------
~WELL INFORMATION SECTION
STRT.F                                           875.0000 : START DEPTH
STOP.F                                          4970.0000 : STOP DEPTH
STEP.F                                             0.5000 : STEP
NULL.                                            -999.250 : NULL VALUE
API .                                      34157253340000 : API NUMBER
CNTY.                                          TUSCARAWAS : COUNTY
COMP.                  OHIO DIVISION OF GEOLOGICAL SURVEY : COMPANY
CTRY.                                                 USA : COUNTRY
DATE.                                            6/9/2007 : DATE
EPD .FT                                               927 : ELEVATION OF REF. DATUM
FILE.NM                         34157253340000_GND_PE_RES : FILE NAME
FLD .                                               SALEM : FIELD
GDAT.                                               NAD83 : GEODETIC DATUM
LAT .                                           40.353705 : LATITUDE
LOC .                             4360'NL & 70'EL OF TWP. : LOCATION
LON .                                          -81.489962 : LONGITUDE
SRVC.                                        SCHLUMBERGER : SERVICE COMPANY
STAT.                                                  OH : STATE
TLD .                                                4970 : TOTAL LOG DEPTH
TWP .                                               SALEM : TOWNSHIP
UWI .                                      34157253340000 : UWI NUMBER
WELL.      BELDEN BRICK UNIT (OHIO GEOLOGICAL SURVEY CO2) : WELL
WSTA.                                           PRODUCING : WELL STATUS
#
#MNEM UNIT API CODES                             DESCRIPTION                          
#---- ---- ---------   ---------------------------------------------------------------
~CURVE INFORMATION SECTION
DEPT.F              : DEPTH IN FEET
TENS.LBF            : CABLE TENSION {F13.4}
HTEM.DEGF           : HTC TEMPERATURE {F13.4}
GR  .GAPI           : GAMMA-RAY {F13.4}
NPHI.CFCF           : THERMAL NEUTRON POROSITY (RATIO METHOD) {F13.4}
HCAL.IN             : HRCC CAL. CALIPER {F13.4}
HDRA.G/C3           : HRDD DENSITY CORRECTION {F13.4}
PEFZ.B/E            : HRDD STANDARD RESOLUTION FORMATION PHOTOELECTRIC FACTOR {F13.4}
PEF8.B/E            : HRDD HIGH RESOLUTION FORMATION PHOTOELECTRIC FACTOR {F13.4}
RHOZ.G/C3           : HRDD STANDARD RESOLUTION FORMATION DENSITY {F13.4}
RHO8.G/C3           : HRDD HIGH RESOLUTION FORMATION DENSITY {F13.4}
DPHZ.CFCF           : HRDD STANDARD RESOLUTION DENSITY POROSITY {F13.4}
DPH8.CFCF           : HRDD HIGH RESOLUTION DENSITY POROSITY {F13.4}
HGR .GAPI           : HIRES GAMMA-RAY {F13.4}
HRM .OHMM           : HALS MUD RESISTIVITY {F13.4}
HLLS.OHMM           : HALS LATEROLOG SHALLOW RESISTIVITY {F13.4}
HLLD.OHMM           : HALS LATEROLOG DEEP RESISTIVITY {F13.4}
#
#    MNEM      UNIT  VALUE/NAME           DESCRIPTION       
#------------- ---- -------------   ------------------------
~PARAMETERS INFORMATION SECTION
APD          .F        12.000000 : ABOVE PERMANENT DATUM
EGROUND LEVEL.FT        917.0000 : 
EPD          .F       917.000000 : ELEVATION OF PERM. DATUM
LMF          .     KELLY BUSHING : LOG MEASURED FROM
PDAT         .      GROUND LEVEL : PERMANENT DATUM
RUN          .               ONE : RUN NUMBER
TD           .FT       4970.0000 : TOTAL DEPTH
WSTA         .               LOC : 
#
~OTHER INFORMATION SECTION
<DESCLOGPLOTSTART> NEURALOG PLOT DEFINITION
PLOTDEFVERSION: 3
LASFILE: S:\IMAGES\GEOPHYSRASTERLOGS\HOLDING_LAS\!WORKING FOLDER!\6_INCH_PEX_HA
DEPTHSCALE: 239.999996
RESOLUTION: 200
DEPTHLABELFREQ: 100.000000
HEAVYGRIDFREQ: 100.000000
MEDIUMGRIDFREQ: 50.000000
LIGHTGRIDFREQ: 10.000000
STARTTRACK:
LEFTX: 0.500000 INCH
RIGHTX: 3.000000 INCH
SCALETYPE: LINEAR
NUMCHARTDIVISIONS: 10
CURVE: GR 0.000000 150.000000 (255,0,0) LONG_DASH 2 Y
BACKUP: 150.000000 300.000000 (255,0,0) SOLID 2
BACKUP: -150.000000 0.000000 (255,0,0) SOLID 2
CURVE: HDRA -0.071900 2.642800 (255,131,0) SOLID 2 N
CURVE: PEFZ 2.124900 10.000000 (0,0,0) SOLID 2 N
CURVE: PEF8 1.984700 10.000000 (0,0,255) SOLID 2 N
CURVE: RHOZ 1.680700 4.434100 (0,131,131) SOLID 2 N
CURVE: RHO8 1.332600 4.628800 (255,0,255) SOLID 2 N
CURVE: DPHZ -1.008300 585.941500 (255,0,0) SOLID 2 N
CURVE: DPH8 -1.122100 585.941500 (255,131,0) SOLID 2 N
CURVE: HGR 11.070400 461.898600 (0,0,0) SOLID 2 N
CURVE: NPHI 0.200000 200.000000 (131,65,65) SOLID 2 Y
BACKUP: 200.000000 200000.000000 (131,65,65) SOLID 2
BACKUP: 0.000200 0.200000 (131,65,65) SOLID 2
ENDTRACK:
STARTTRACK:
LEFTX: 3.750000 INCH
RIGHTX: 8.750000 INCH
SCALETYPE: LOG
NUMCYCLES: 3
STARTCYCLE: 2
CURVE: HRM 0.200000 200.000000 (0,0,255) SOLID 2 N
CURVE: HLLS 0.200000 200.000000 (0,131,131) SOLID 2 N
CURVE: HLLD 0.200000 200.000000 (255,0,255) SOLID 2 N
ENDTRACK:
STARTTRACK:
LEFTX: 8.750000 INCH
RIGHTX: 11.250000 INCH
SCALETYPE: LINEAR
NUMCHARTDIVISIONS: 10
CURVE: HCAL 2.230300 15.927300 (255,0,0) SOLID 2 N
CURVE: TENS 864.000000 1950.000000 (0,131,131) SOLID 2 N
CURVE: HTEM 79.620100 103.334500 (255,0,255) SOLID 2 N
ENDTRACK:
<DESCLOGPLOTEND>
<DEPTHTRACK TYPE='REFERENCE' TRACK='1' LABEL='0' COLOR='0' HOR='0' />
<REFERENCE FONT='-96,0,-900,0,400,0,570491395,ARIAL NARROW' />
#
#  DEPT        TENS          HTEM          GR         NPHI        HCAL         HDRA          PEFZ          PEF8          RHOZ          RHO8          DPHZ         DPH8         HGR         HRM          HLLS           HLLD      
#--------- ------------- ------------ ------------ ----------- ----------- ------------- ------------- ------------- ------------- ------------- ------------ ------------ ------------ ---------- -------------- -------------- 
~ASCII LOG DATA
# ...
3593.0000 1583.00000000 101.35830000  17.33600000 -0.00360000 11.24040000    0.01160000    6.13700000    5.59130000    3.00600000    2.99640000  -0.09620000  -0.09100000  14.79790000 0.11550000   213.43430000  4980.61770000 
3593.5000 1505.00000000 101.53790000  19.93950000 -0.00290000 11.22420000    0.01310000    5.99010000    5.79210000    2.99820000    2.97420000  -0.09190000  -0.07880000  21.65080000 0.11550000   212.42360000  5692.62700000 
3594.0000 1549.00000000 101.53790000  20.88940000 -0.00300000 11.23230000    0.01510000    5.82900000    6.18530000    2.99470000    2.95780000  -0.09000000  -0.06980000  23.47430000 0.11550000   204.44540000  2335.82670000 
3594.5000 1583.00000000 101.53790000  18.48460000 -0.00280000 11.22420000    0.02140000    5.65060000    5.69160000    2.99790000    3.00900000  -0.09170000  -0.09780000  17.80330000 0.11550000   205.99480000  2291.25810000 
3595.0000 1512.00000000 101.53790000  15.72070000 -0.00230000 11.24850000    0.01800000    5.38330000    5.13660000    2.97180000    2.97490000  -0.07750000  -0.07920000  14.19680000 0.11540000   203.71450000  2200.62260000 
3595.5000 1578.00000000 101.53790000  16.68300000 -0.00180000 11.24850000    0.01190000    5.26090000    5.05460000    2.94170000    2.95380000  -0.06110000  -0.06760000  14.92290000 0.11540000   200.16480000  2240.19290000 
3596.0000 1518.00000000 101.53790000  18.57710000 -0.00200000 11.29700000    0.00480000    5.46110000    5.25670000    2.93360000    2.94830000  -0.05660000  -0.06460000  20.69020000 0.11540000   205.81760000  3131.33960000 
3596.5000 1568.00000000 101.53790000  19.53690000 -0.00170000 11.29700000    0.00320000    5.86650000    5.55240000    2.94750000    2.92820000  -0.06420000  -0.05370000  20.34440000 0.11550000   206.37210000  3342.45970000 
3597.0000 1539.00000000 101.53790000  18.82770000 -0.00200000 11.27270000   -0.00870000    6.12560000    7.37960000    2.95820000    2.95930000  -0.07010000  -0.07070000  17.80190000 0.11540000   205.20880000  2886.40700000 
3597.5000 1564.00000000 101.53790000  18.05840000 -0.00210000 11.27270000   -0.01260000    5.95710000    5.87610000    2.95300000    2.97760000  -0.06720000  -0.08060000  18.04670000 0.11550000   206.44960000  2670.28910000 
3598.0000 1560.00000000 101.53790000  18.13960000 -0.00230000 11.24850000   -0.01120000    5.50380000    5.34560000    2.93690000    2.93610000  -0.05840000  -0.05800000  17.81120000 0.11550000   195.76630000 60000.00000000 
3598.5000 1505.00000000 101.53790000  17.56850000 -0.00180000 11.27270000   -0.00100000    5.07810000    4.83120000    2.91800000    2.93490000  -0.04810000  -0.05730000  17.92550000 0.11550000   192.37370000  1268.79880000 
3599.0000 1591.00000000 101.53790000  17.30310000 -0.00130000 11.28480000   -0.00080000    4.98990000    4.61690000    2.90410000    2.92710000  -0.04050000  -0.05310000  16.84850000 0.11550000   172.62760000   507.87810000 
3599.5000 1462.00000000 101.53790000  18.18760000  0.00070000 11.24850000   -0.00040000    5.14590000    4.79560000    2.91810000    2.92640000  -0.04820000  -0.05270000  17.08240000 0.11550000   173.14800000   533.40370000 
3600.0000 1601.00000000 101.53790000  18.18480000  0.00160000 11.24850000    0.01220000    5.52000000    6.13500000    2.96820000    2.86550000  -0.07550000  -0.01940000  20.69950000 0.11560000   172.37700000   499.92390000 
3600.5000 1558.00000000 101.53790000  18.01290000 -0.00050000 11.24850000    0.02750000    5.74450000    6.68190000    3.01250000    3.00590000  -0.09970000  -0.09610000  16.83980000 0.11550000   190.24710000   880.75210000 
3601.0000 1524.00000000 101.53790000  17.47220000 -0.00250000 11.22420000    0.02840000    5.69290000    5.25940000    3.00720000    3.01700000  -0.09680000  -0.10220000  16.48140000 0.11560000   197.38730000  1224.39380000 
3601.5000 1634.00000000 101.53790000  16.83310000 -0.00300000 11.23230000    0.01430000    5.45780000    5.20840000    2.95450000    2.95870000  -0.06800000  -0.07030000  19.12760000 0.11560000   204.87470000 13214.21970000 
3602.0000 1474.00000000 101.53790000  18.23320000 -0.00010000 11.24850000   -0.00200000    5.27020000    5.01270000    2.90880000    2.92350000  -0.04310000  -0.05110000  14.92290000 0.11560000   201.48160000  1785.69510000 
3602.5000 1599.00000000 101.53790000  17.71760000  0.00090000 11.22420000   -0.00500000    5.20880000    5.13370000    2.90010000    2.90980000  -0.03830000  -0.04360000  20.69950000 0.11560000   196.07350000  1318.15260000 
3603.0000 1529.00000000 101.53790000  18.51700000 -0.00030000 11.20000000   -0.00310000    5.10280000    5.12150000    2.91160000    2.93450000  -0.04460000  -0.05710000  18.05030000 0.11560000   208.15480000  2288.90500000 
3603.5000 1496.00000000 101.71760000  19.35540000 -0.00140000 11.20000000    0.00370000    5.01220000    4.97000000    2.92980000    2.92670000  -0.05450000  -0.05290000  17.32190000 0.11560000   204.61280000  1128.62040000 
3604.0000 1620.00000000 101.53790000  19.44600000 -0.00200000 11.20000000    0.01410000    5.00600000    4.99070000    2.95110000    2.94950000  -0.06620000  -0.06530000  23.47430000 0.11560000   207.12650000  2637.98830000 
3604.5000 1521.00000000 101.71760000  19.51580000  0.00030000 11.20810000    0.01540000    4.97000000    5.08810000    2.94910000    2.93290000  -0.06510000  -0.05620000  17.80120000 0.11550000   206.85700000  1427.08890000 
3605.0000 1587.00000000 101.71760000  16.91230000  0.00260000 11.20000000    0.01290000    4.94250000    4.92350000    2.93240000    2.94480000  -0.05590000  -0.06270000  17.20480000 0.11410000   202.52010000  1538.06990000 
3605.5000 1538.00000000 101.89730000  21.40300000  0.00780000 11.22420000    0.02120000    4.92360000    4.90280000    2.91950000    2.90580000  -0.04890000  -0.04140000  15.40430000 0.11410000   191.08630000  1429.82010000 
3606.0000 1528.00000000 101.53790000  24.49660000  0.01440000 11.23230000    0.02730000    4.92780000    4.99170000    2.90790000    2.90100000  -0.04260000  -0.03880000  31.27130000 0.11410000   181.13620000  1113.58570000 
3606.5000 1583.00000000 101.53790000  26.42220000  0.01790000 11.26060000    0.02450000    4.90510000    4.78180000    2.89590000    2.89560000  -0.03600000  -0.03590000  27.31640000 0.11410000   110.07440000   123.66170000 
3607.0000 1516.00000000 101.53790000  24.76260000  0.01150000 11.24850000    0.00600000    4.90160000    4.88990000    2.88220000    2.90220000  -0.02850000  -0.03950000  21.18670000 0.11410000   107.60950000   117.77170000 
3607.5000 1589.00000000 101.71760000  22.24400000  0.00480000 11.22420000   -0.00130000    5.05930000    5.03100000    2.89640000    2.91530000  -0.03630000  -0.04660000  25.86210000 0.11410000   117.36830000   142.24960000 
3608.0000 1526.00000000 101.89730000  21.02720000  0.00130000 11.20000000   -0.00200000    5.31740000    5.15350000    2.92310000    2.91800000  -0.05090000  -0.04810000  19.25540000 0.11410000   183.59200000  1170.25930000 
3608.5000 1596.00000000 101.71760000  19.64310000  0.00220000 11.20000000   -0.00540000    5.51580000    6.01830000    2.93660000    2.95150000  -0.05830000  -0.06640000  17.32450000 0.11410000   189.70090000  1005.42770000 
3609.0000 1532.00000000 101.71760000  20.76260000  0.00210000 11.20000000   -0.00330000    5.50420000    5.70280000    2.94160000    2.92830000  -0.06100000  -0.05370000  22.14370000 0.11410000   199.84610000   863.51650000 
3609.5000 1527.00000000 101.53790000  22.14140000  0.00050000 11.20000000   -0.00060000    5.33140000    5.13930000    2.93690000    2.93550000  -0.05840000  -0.05770000  22.61640000 0.11400000   208.67310000  1442.08580000 
3610.0000 1587.00000000 101.53790000  21.81700000 -0.00070000 11.20000000    0.00290000    5.25240000    4.98130000    2.92540000    2.92840000  -0.05210000  -0.05380000  21.42610000 0.11400000   209.41970000  2044.26550000 
3610.5000 1506.00000000 101.89730000  22.70060000 -0.00040000 11.20000000    0.00030000    5.30860000    5.12440000    2.91870000    2.91560000  -0.04850000  -0.04680000  21.16650000 0.11400000   214.15590000  2008.69170000 
