# LAS WORX (tm) v19.05.17 Header Hash (-8291391322489380521) Data Hash (-686710286087721855) DO NOT REMOVE THIS LINE
~VERSION INFORMATION SECTION
VERS. 2.00 : CWLS LOG ASCII STANDARD - VERSION 2.000000
WRAP. NO   : ONE LINE PER DEPTH STEP
#
#MNEM UNIT                   VALUE/NAME                            DESCRIPTION      
#---- ---- -----------------------------------------------   -----------------------
~WELL INFORMATION SECTION
STRT.F                                           875.0000 : START DEPTH
STOP.F                                          4970.0000 : STOP DEPTH
STEP.F                                             0.5000 : STEP
NULL.                                            -999.250 : NULL VALUE
API .                                      34157253340000 : API NUMBER
CNTY.                                          TUSCARAWAS : COUNTY
COMP.                  OHIO DIVISION OF GEOLOGICAL SURVEY : COMPANY
CTRY.                                                 USA : COUNTRY
DATE.                                            6/9/2007 : DATE
EPD .FT                                               927 : ELEVATION OF REF. DATUM
FILE.NM                         34157253340000_GND_PE_RES : FILE NAME
FLD .                                               SALEM : FIELD
GDAT.                                               NAD83 : GEODETIC DATUM
LAT .                                           40.353705 : LATITUDE
LOC .                             4360'NL & 70'EL OF TWP. : LOCATION
LON .                                          -81.489962 : LONGITUDE
SRVC.                                        SCHLUMBERGER : SERVICE COMPANY
STAT.                                                  OH : STATE
TLD .                                                4970 : TOTAL LOG DEPTH
TWP .                                               SALEM : TOWNSHIP
UWI .                                      34157253340000 : UWI NUMBER
WELL.      BELDEN BRICK UNIT (OHIO GEOLOGICAL SURVEY CO2) : WELL
WSTA.                                           PRODUCING : WELL STATUS
#
#MNEM UNIT API CODES                             DESCRIPTION                          
#---- ---- ---------   ---------------------------------------------------------------
~CURVE INFORMATION SECTION
DEPT.F              : DEPTH IN FEET
TENS.LBF            : CABLE TENSION {F13.4}
HTEM.DEGF           : HTC TEMPERATURE {F13.4}
GR  .GAPI           : GAMMA-RAY {F13.4}
NPHI.CFCF           : THERMAL NEUTRON POROSITY (RATIO METHOD) {F13.4}
HCAL.IN             : HRCC CAL. CALIPER {F13.4}
HDRA.G/C3           : HRDD DENSITY CORRECTION {F13.4}
PEFZ.B/E            : HRDD STANDARD RESOLUTION FORMATION PHOTOELECTRIC FACTOR {F13.4}
PEF8.B/E            : HRDD HIGH RESOLUTION FORMATION PHOTOELECTRIC FACTOR {F13.4}
RHOZ.G/C3           : HRDD STANDARD RESOLUTION FORMATION DENSITY {F13.4}
RHO8.G/C3           : HRDD HIGH RESOLUTION FORMATION DENSITY {F13.4}
DPHZ.CFCF           : HRDD STANDARD RESOLUTION DENSITY POROSITY {F13.4}
DPH8.CFCF           : HRDD HIGH RESOLUTION DENSITY POROSITY {F13.4}
HGR .GAPI           : HIRES GAMMA-RAY {F13.4}
HRM .OHMM           : HALS MUD RESISTIVITY {F13.4}
HLLS.OHMM           : HALS LATEROLOG SHALLOW RESISTIVITY {F13.4}
HLLD.OHMM           : HALS LATEROLOG DEEP RESISTIVITY {F13.4}
#
#    MNEM      UNIT  VALUE/NAME           DESCRIPTION       
#------------- ---- -------------   ------------------------
~PARAMETERS INFORMATION SECTION
APD          .F        12.000000 : ABOVE PERMANENT DATUM
EGROUND LEVEL.FT        917.0000 : 
EPD          .F       917.000000 : ELEVATION OF PERM. DATUM
LMF          .     KELLY BUSHING : LOG MEASURED FROM
PDAT         .      GROUND LEVEL : PERMANENT DATUM
RUN          .               ONE : RUN NUMBER
TD           .FT       4970.0000 : TOTAL DEPTH
WSTA         .               LOC : 
#
~OTHER INFORMATION SECTION
<DESCLOGPLOTSTART> NEURALOG PLOT DEFINITION
PLOTDEFVERSION: 3
LASFILE: S:\IMAGES\GEOPHYSRASTERLOGS\HOLDING_LAS\!WORKING FOLDER!\6_INCH_PEX_HA
DEPTHSCALE: 239.999996
RESOLUTION: 200
DEPTHLABELFREQ: 100.000000
HEAVYGRIDFREQ: 100.000000
MEDIUMGRIDFREQ: 50.000000
LIGHTGRIDFREQ: 10.000000
STARTTRACK:
LEFTX: 0.500000 INCH
RIGHTX: 3.000000 INCH
SCALETYPE: LINEAR
NUMCHARTDIVISIONS: 10
CURVE: GR 0.000000 150.000000 (255,0,0) LONG_DASH 2 Y
BACKUP: 150.000000 300.000000 (255,0,0) SOLID 2
BACKUP: -150.000000 0.000000 (255,0,0) SOLID 2
CURVE: HDRA -0.071900 2.642800 (255,131,0) SOLID 2 N
CURVE: PEFZ 2.124900 10.000000 (0,0,0) SOLID 2 N
CURVE: PEF8 1.984700 10.000000 (0,0,255) SOLID 2 N
CURVE: RHOZ 1.680700 4.434100 (0,131,131) SOLID 2 N
CURVE: RHO8 1.332600 4.628800 (255,0,255) SOLID 2 N
CURVE: DPHZ -1.008300 585.941500 (255,0,0) SOLID 2 N
CURVE: DPH8 -1.122100 585.941500 (255,131,0) SOLID 2 N
CURVE: HGR 11.070400 461.898600 (0,0,0) SOLID 2 N
CURVE: NPHI 0.200000 200.000000 (131,65,65) SOLID 2 Y
BACKUP: 200.000000 200000.000000 (131,65,65) SOLID 2
BACKUP: 0.000200 0.200000 (131,65,65) SOLID 2
ENDTRACK:
STARTTRACK:
LEFTX: 3.750000 INCH
RIGHTX: 8.750000 INCH
SCALETYPE: LOG
NUMCYCLES: 3
STARTCYCLE: 2
CURVE: HRM 0.200000 200.000000 (0,0,255) SOLID 2 N
CURVE: HLLS 0.200000 200.000000 (0,131,131) SOLID 2 N
CURVE: HLLD 0.200000 200.000000 (255,0,255) SOLID 2 N
ENDTRACK:
STARTTRACK:
LEFTX: 8.750000 INCH
RIGHTX: 11.250000 INCH
SCALETYPE: LINEAR
NUMCHARTDIVISIONS: 10
CURVE: HCAL 2.230300 15.927300 (255,0,0) SOLID 2 N
CURVE: TENS 864.000000 1950.000000 (0,131,131) SOLID 2 N
CURVE: HTEM 79.620100 103.334500 (255,0,255) SOLID 2 N
ENDTRACK:
<DESCLOGPLOTEND>
<DEPTHTRACK TYPE='REFERENCE' TRACK='1' LABEL='0' COLOR='0' HOR='0' />
<REFERENCE FONT='-96,0,-900,0,400,0,570491395,ARIAL NARROW' />
#
#  DEPT        TENS          HTEM          GR         NPHI        HCAL         HDRA          PEFZ          PEF8          RHOZ          RHO8          DPHZ         DPH8         HGR         HRM          HLLS           HLLD      
#--------- ------------- ------------ ------------ ----------- ----------- ------------- ------------- ------------- ------------- ------------- ------------ ------------ ------------ ---------- -------------- -------------- 
~ASCII LOG DATA
# ...
4691.0000 1715.00000000 102.25660000  78.26810000  0.06480000 11.24850000    0.04420000    3.75490000    3.70170000    2.87040000    2.84170000  -0.02210000  -0.00640000  87.51470000 0.11290000   103.62510000   127.57880000 
4691.5000 1896.00000000 102.43620000  85.00410000  0.06790000 11.07880000    0.02590000    3.67730000    3.70050000    2.83740000    2.81960000  -0.00400000   0.00570000  71.69390000 0.11290000   102.65400000   127.18560000 
4692.0000 1807.00000000 102.61590000  89.30310000  0.08020000 11.10300000    0.02360000    3.68280000    3.60420000    2.81640000    2.81550000   0.00740000   0.00790000  97.18360000 0.11290000   105.98590000   137.84290000 
4692.5000 1710.00000000 102.25660000 101.33390000  0.09700000 11.12730000    0.03750000    3.74080000    3.69960000    2.80630000    2.81400000   0.01290000   0.00870000 101.72360000 0.11290000    96.85240000   121.52880000 
4693.0000 1818.00000000 102.61590000 120.49720000  0.12960000 11.09490000    0.06600000    3.82970000    3.98080000    2.83500000    2.86550000  -0.00270000  -0.01940000 105.87550000 0.11290000    82.77000000    85.97450000 
4693.5000 1762.00000000 102.25660000 116.69830000  0.10600000 11.08690000    0.07630000    3.83190000    4.04510000    2.85770000    2.87770000  -0.01520000  -0.02610000 155.06610000 0.11290000    72.38470000    63.68680000 
4694.0000 1701.00000000 102.43620000 100.21650000  0.07120000 11.06260000    0.05720000    3.76950000    3.70270000    2.86150000    2.86870000  -0.01720000  -0.02120000  87.58500000 0.11290000    84.75120000    83.65930000 
4694.5000 1832.00000000 102.61590000  67.56160000  0.02350000 11.07880000    0.03110000    3.72110000    3.60300000    2.84980000    2.86060000  -0.01080000  -0.01670000  57.28480000 0.11290000   130.20700000   262.17880000 
4695.0000 1813.00000000 102.25660000  64.98360000  0.03090000 11.09090000    0.00800000    3.75000000    3.62350000    2.82720000    2.82370000   0.00150000   0.00340000  56.54240000 0.11290000   139.13860000   343.61220000 
4695.5000 1755.00000000 102.61590000  69.63700000  0.03470000 11.08690000    0.00550000    3.85640000    4.07250000    2.83480000    2.81060000  -0.00260000   0.01060000  80.00520000 0.11290000    99.86440000   108.53140000 
4696.0000 1745.00000000 102.43620000  65.68400000  0.02550000 11.07880000    0.01870000    3.95020000    4.04580000    2.84790000    2.88020000  -0.00980000  -0.02740000  71.24490000 0.11280000   105.73880000   130.13780000 
4696.5000 1782.00000000 102.25660000  49.70030000  0.01040000 11.07880000    0.07070000    4.04650000    3.98850000    2.87040000    2.90220000  -0.02210000  -0.03950000  44.03450000 0.11270000   105.99770000   131.73570000 
4697.0000 1739.00000000 102.61590000  34.55000000  0.00550000 11.07880000    0.16590000    4.14510000    3.96020000    2.91110000    2.94820000  -0.04430000  -0.06460000  32.84300000 0.11270000   161.34160000   884.87910000 
4697.5000 1753.00000000 102.43620000  33.06950000  0.00560000 11.05450000    0.25630000    4.25330000    4.39730000    2.96040000    3.06200000  -0.07120000  -0.12680000  25.27720000 0.11280000   194.17180000   853.03450000 
4698.0000 1808.00000000 102.25660000  38.56930000  0.00520000 11.07070000    0.27250000    4.32190000    4.02710000    2.97480000    3.04230000  -0.07910000  -0.11600000  40.41980000 0.11290000   201.33740000   876.55190000 
4698.5000 1713.00000000 102.43620000  50.25170000  0.00400000 11.12730000    0.20460000    4.31310000    4.78540000    2.94440000    2.94660000  -0.06250000  -0.06370000  49.20470000 0.11290000   202.23500000  1119.00460000 
4699.0000 1768.00000000 102.25660000  59.56520000  0.00430000 11.05450000    0.11250000    4.23080000    4.28290000    2.88240000    2.86140000  -0.02860000  -0.01710000  61.11160000 0.11290000   162.91880000   789.49670000 
4699.5000 1818.00000000 102.61590000  87.92340000  0.00670000 11.10300000    0.06400000    4.06510000    4.05510000    2.82500000    2.81190000   0.00270000   0.00990000  68.35660000 0.11290000   158.75050000   789.38370000 
4700.0000 1767.00000000 102.43620000 121.26580000  0.03050000 11.06260000    0.07290000    3.88400000    4.17820000    2.79840000    2.80600000   0.01730000   0.01310000 136.29220000 0.11290000   128.37180000   297.43150000 
4700.5000 1713.00000000 102.61590000 160.09750000  0.10710000 11.07880000    0.10010000    3.72130000    3.38880000    2.77680000    2.72660000  -0.03910000  -0.00970000 161.08210000 0.11290000    71.87330000    81.92280000 
4701.0000 1809.00000000 102.43620000 172.47200000  0.15960000 11.66060000    0.12310000    3.64810000    3.35120000    2.76750000    2.78260000  -0.03360000  -0.04250000 184.85170000 0.11290000    66.60930000    78.73640000 
4701.5000 1796.00000000 102.25660000 174.36250000  0.15630000 11.32120000    0.14380000    3.65010000    3.60790000    2.77470000    2.76950000  -0.03780000  -0.03480000 171.44820000 0.11290000    56.44300000    58.86940000 
4702.0000 1728.00000000 102.61590000 173.88110000  0.14190000 11.07880000    0.15940000    3.64770000    4.33200000    2.80810000    2.87760000  -0.05740000  -0.09800000 164.44990000 0.11300000    64.73530000    78.69520000 
4702.5000 1825.00000000 102.43620000 187.11500000  0.13610000 11.25660000    0.16640000    3.59640000    3.46530000    2.84210000    2.84370000  -0.07720000  -0.07820000 183.40760000 0.11300000    60.42330000    69.84700000 
4703.0000 1782.00000000 102.25660000 196.22400000  0.17040000 11.29700000    0.17030000    3.56560000    3.38110000    2.83180000    2.77520000  -0.07120000  -0.03810000 211.48890000 0.11300000    55.73470000    65.58190000 
4703.5000 1686.00000000 102.43620000 203.52820000  0.17220000 11.13940000    0.21200000    3.63420000    3.53660000    2.81370000    2.84030000  -0.06060000  -0.07620000 193.68580000 0.11300000    48.22690000    50.29840000 
4704.0000 1796.00000000 102.25660000 215.01730000  0.20050000 11.20000000    0.29000000    3.73210000    3.89130000    2.83390000    2.91040000  -0.07250000  -0.11720000 206.69070000 0.11300000    49.35950000    53.91130000 
4704.5000 1829.00000000 102.43620000 226.53240000  0.22070000 11.44240000    0.32590000    3.77450000    3.90880000    2.85090000    2.89320000  -0.08240000  -0.10710000 245.86670000 0.11310000    47.99720000    50.24640000 
4705.0000 1687.00000000 102.43620000 234.61450000  0.23560000 11.67270000    0.28540000    3.72770000    3.43090000    2.85230000    2.84270000  -0.08320000  -0.07760000 229.88770000 0.11320000    45.28970000    43.17760000 
4705.5000 1781.00000000 102.25660000 233.81260000  0.22960000 11.18790000    0.19210000    3.65040000    3.73020000    2.81440000    2.85280000  -0.06110000  -0.08350000 229.79900000 0.11370000    44.07510000    41.70250000 
4706.0000 1850.00000000 102.43620000 233.46890000  0.21990000 11.24850000    0.13500000    3.56330000    3.65260000    2.78290000    2.79320000  -0.04270000  -0.04870000 243.45620000 0.11370000    43.41710000    42.52110000 
4706.5000 1748.00000000 102.25660000 237.08010000  0.21250000 11.28480000    0.13940000    3.47490000    3.34270000    2.77060000    2.74840000  -0.03540000  -0.02250000 227.48890000 0.11370000    42.17850000    40.14270000 
4707.0000 1785.00000000 102.43620000 225.21180000  0.20850000 11.22420000    0.18260000    3.40780000    3.25720000    2.77440000    2.74430000  -0.03760000  -0.02010000 240.87440000 0.11380000    45.74270000    42.88210000 
4707.5000 1814.00000000 102.43620000 222.90940000  0.21430000 11.27270000    0.22490000    3.38100000    3.31150000    2.77600000    2.82490000  -0.03860000  -0.06720000 207.84810000 0.11400000    43.06100000    40.08210000 
4708.0000 1760.00000000 102.25660000 216.50750000  0.20300000 11.35760000    0.25700000    3.40560000    3.97660000    2.74520000    2.87700000  -0.02060000  -0.09770000 220.47420000 0.11400000    42.14090000    38.47710000 
4708.5000 1806.00000000 102.61590000 215.86600000  0.19750000 11.78180000    0.29880000    3.41720000    3.64200000    2.74680000    2.78200000  -0.02150000  -0.04210000 221.49850000 0.11410000    38.84010000    38.21290000 
