# LAS WORX (tm) v19.05.17 Header Hash (-8291391322489380521) Data Hash (-686710286087721855) DO NOT REMOVE THIS LINE
~VERSION INFORMATION SECTION
VERS. 2.00 : CWLS LOG ASCII STANDARD - VERSION 2.000000
WRAP. NO   : ONE LINE PER DEPTH STEP
#
#MNEM UNIT                   VALUE/NAME                            DESCRIPTION      
#---- ---- -----------------------------------------------   -----------------------
~WELL INFORMATION SECTION
STRT.F                                           875.0000 : START DEPTH
STOP.F                                          4970.0000 : STOP DEPTH
STEP.F                                             0.5000 : STEP
NULL.                                            -999.250 : NULL VALUE
API .                                      34157253340000 : API NUMBER
CNTY.                                          TUSCARAWAS : COUNTY
COMP.                  OHIO DIVISION OF GEOLOGICAL SURVEY : COMPANY
CTRY.                                                 USA : COUNTRY
DATE.                                            6/9/2007 : DATE
EPD .FT                                               927 : ELEVATION OF REF. DATUM
FILE.NM                         34157253340000_GND_PE_RES : FILE NAME
FLD .                                               SALEM : FIELD
GDAT.                                               NAD83 : GEODETIC DATUM
LAT .                                           40.353705 : LATITUDE
LOC .                             4360'NL & 70'EL OF TWP. : LOCATION
LON .                                          -81.489962 : LONGITUDE
SRVC.                                        SCHLUMBERGER : SERVICE COMPANY
STAT.                                                  OH : STATE
TLD .                                                4970 : TOTAL LOG DEPTH
TWP .                                               SALEM : TOWNSHIP
UWI .                                      34157253340000 : UWI NUMBER
WELL.      BELDEN BRICK UNIT (OHIO GEOLOGICAL SURVEY CO2) : WELL
WSTA.                                           PRODUCING : WELL STATUS
#
#MNEM UNIT API CODES                             DESCRIPTION                          
#---- ---- ---------   ---------------------------------------------------------------
~CURVE INFORMATION SECTION
DEPT.F              : DEPTH IN FEET
TENS.LBF            : CABLE TENSION {F13.4}
HTEM.DEGF           : HTC TEMPERATURE {F13.4}
GR  .GAPI           : GAMMA-RAY {F13.4}
NPHI.CFCF           : THERMAL NEUTRON POROSITY (RATIO METHOD) {F13.4}
HCAL.IN             : HRCC CAL. CALIPER {F13.4}
HDRA.G/C3           : HRDD DENSITY CORRECTION {F13.4}
PEFZ.B/E            : HRDD STANDARD RESOLUTION FORMATION PHOTOELECTRIC FACTOR {F13.4}
PEF8.B/E            : HRDD HIGH RESOLUTION FORMATION PHOTOELECTRIC FACTOR {F13.4}
RHOZ.G/C3           : HRDD STANDARD RESOLUTION FORMATION DENSITY {F13.4}
RHO8.G/C3           : HRDD HIGH RESOLUTION FORMATION DENSITY {F13.4}
DPHZ.CFCF           : HRDD STANDARD RESOLUTION DENSITY POROSITY {F13.4}
DPH8.CFCF           : HRDD HIGH RESOLUTION DENSITY POROSITY {F13.4}
HGR .GAPI           : HIRES GAMMA-RAY {F13.4}
HRM .OHMM           : HALS MUD RESISTIVITY {F13.4}
HLLS.OHMM           : HALS LATEROLOG SHALLOW RESISTIVITY {F13.4}
HLLD.OHMM           : HALS LATEROLOG DEEP RESISTIVITY {F13.4}
#
#    MNEM      UNIT  VALUE/NAME           DESCRIPTION       
#------------- ---- -------------   ------------------------
~PARAMETERS INFORMATION SECTION
APD          .F        12.000000 : ABOVE PERMANENT DATUM
EGROUND LEVEL.FT        917.0000 : 
EPD          .F       917.000000 : ELEVATION OF PERM. DATUM
LMF          .     KELLY BUSHING : LOG MEASURED FROM
PDAT         .      GROUND LEVEL : PERMANENT DATUM
RUN          .               ONE : RUN NUMBER
TD           .FT       4970.0000 : TOTAL DEPTH
WSTA         .               LOC : 
#
~OTHER INFORMATION SECTION
<DESCLOGPLOTSTART> NEURALOG PLOT DEFINITION
PLOTDEFVERSION: 3
LASFILE: S:\IMAGES\GEOPHYSRASTERLOGS\HOLDING_LAS\!WORKING FOLDER!\6_INCH_PEX_HA
DEPTHSCALE: 239.999996
RESOLUTION: 200
DEPTHLABELFREQ: 100.000000
HEAVYGRIDFREQ: 100.000000
MEDIUMGRIDFREQ: 50.000000
LIGHTGRIDFREQ: 10.000000
STARTTRACK:
LEFTX: 0.500000 INCH
RIGHTX: 3.000000 INCH
SCALETYPE: LINEAR
NUMCHARTDIVISIONS: 10
CURVE: GR 0.000000 150.000000 (255,0,0) LONG_DASH 2 Y
BACKUP: 150.000000 300.000000 (255,0,0) SOLID 2
BACKUP: -150.000000 0.000000 (255,0,0) SOLID 2
CURVE: HDRA -0.071900 2.642800 (255,131,0) SOLID 2 N
CURVE: PEFZ 2.124900 10.000000 (0,0,0) SOLID 2 N
CURVE: PEF8 1.984700 10.000000 (0,0,255) SOLID 2 N
CURVE: RHOZ 1.680700 4.434100 (0,131,131) SOLID 2 N
CURVE: RHO8 1.332600 4.628800 (255,0,255) SOLID 2 N
CURVE: DPHZ -1.008300 585.941500 (255,0,0) SOLID 2 N
CURVE: DPH8 -1.122100 585.941500 (255,131,0) SOLID 2 N
CURVE: HGR 11.070400 461.898600 (0,0,0) SOLID 2 N
CURVE: NPHI 0.200000 200.000000 (131,65,65) SOLID 2 Y
BACKUP: 200.000000 200000.000000 (131,65,65) SOLID 2
BACKUP: 0.000200 0.200000 (131,65,65) SOLID 2
ENDTRACK:
STARTTRACK:
LEFTX: 3.750000 INCH
RIGHTX: 8.750000 INCH
SCALETYPE: LOG
NUMCYCLES: 3
STARTCYCLE: 2
CURVE: HRM 0.200000 200.000000 (0,0,255) SOLID 2 N
CURVE: HLLS 0.200000 200.000000 (0,131,131) SOLID 2 N
CURVE: HLLD 0.200000 200.000000 (255,0,255) SOLID 2 N
ENDTRACK:
STARTTRACK:
LEFTX: 8.750000 INCH
RIGHTX: 11.250000 INCH
SCALETYPE: LINEAR
NUMCHARTDIVISIONS: 10
CURVE: HCAL 2.230300 15.927300 (255,0,0) SOLID 2 N
CURVE: TENS 864.000000 1950.000000 (0,131,131) SOLID 2 N
CURVE: HTEM 79.620100 103.334500 (255,0,255) SOLID 2 N
ENDTRACK:
<DESCLOGPLOTEND>
<DEPTHTRACK TYPE='REFERENCE' TRACK='1' LABEL='0' COLOR='0' HOR='0' />
<REFERENCE FONT='-96,0,-900,0,400,0,570491395,ARIAL NARROW' />
#
#  DEPT        TENS          HTEM          GR         NPHI        HCAL         HDRA          PEFZ          PEF8          RHOZ          RHO8          DPHZ         DPH8         HGR         HRM          HLLS           HLLD      
#--------- ------------- ------------ ------------ ----------- ----------- ------------- ------------- ------------- ------------- ------------- ------------ ------------ ------------ ---------- -------------- -------------- 
~ASCII LOG DATA
# ...
3323.0000 1445.00000000 100.10070000  61.86690000  0.01120000 11.11520000    0.00800000    3.52430000    3.16520000    2.66800000    2.66640000   0.02450000   0.02550000  58.22090000 0.11390000   119.61610000   215.74720000 
3323.5000 1583.00000000 100.10070000  52.35420000  0.00700000 11.10300000    0.03970000    3.53440000    3.89250000    2.68670000    2.71940000   0.01360000  -0.00550000  52.60260000 0.11390000   125.20760000   248.72630000 
3324.0000 1520.00000000 100.10070000  47.38490000  0.00730000 11.13540000    0.08070000    3.45080000    4.03550000    2.71880000    2.78120000  -0.00520000  -0.04160000  45.70710000 0.11390000   158.60310000   650.08150000 
3324.5000 1524.00000000 100.10070000  43.95410000  0.01010000 11.09090000    0.09480000    3.31460000    2.65890000    2.73260000    2.68110000  -0.01320000   0.01690000  43.31390000 0.11390000   187.36330000  1108.32900000 
3325.0000 1514.00000000 100.10070000  46.59220000  0.01270000 11.15150000    0.07370000    3.29700000    3.05860000    2.73490000    2.69970000  -0.01450000   0.00600000  42.84330000 0.11390000   181.19200000  1029.37720000 
3325.5000 1499.00000000  99.74140000  54.45940000  0.01470000 11.15150000    0.03400000    3.41430000    3.65370000    2.71750000    2.72780000  -0.00440000  -0.01040000  53.65420000 0.11390000   159.37800000   604.59910000 
3326.0000 1542.00000000  99.92110000  63.55240000  0.01590000 11.17580000    0.01570000    3.51550000    3.84600000    2.71440000    2.75290000  -0.00260000  -0.02510000  66.91250000 0.11390000   138.65100000   399.62970000 
3326.5000 1480.00000000  99.92110000  66.05670000  0.01750000 11.12730000    0.01580000    3.50390000    3.19240000    2.71660000    2.72150000  -0.00380000  -0.00670000  69.53950000 0.11390000   128.47770000   280.92440000 
3327.0000 1499.00000000 100.10070000  61.71530000  0.01670000 11.11520000    0.02220000    3.42920000    3.41710000    2.70970000    2.71350000   0.00020000  -0.00210000  61.13590000 0.11390000   118.26190000   231.98710000 
3327.5000 1524.00000000 100.10070000  55.01240000  0.01540000 11.11920000    0.02530000    3.43890000    3.57410000    2.70200000    2.68570000   0.00470000   0.01420000  53.88990000 0.11390000   121.99520000   253.76140000 
3328.0000 1452.00000000 100.10070000  46.32710000  0.01270000 11.08690000    0.02370000    3.54810000    3.29300000    2.68860000    2.65120000   0.01250000   0.03440000  50.89710000 0.11390000   132.72260000   316.90010000 
3328.5000 1511.00000000  99.92110000  41.51570000  0.01360000 11.26060000    0.03450000    3.68700000    3.96140000    2.69930000    2.73270000   0.00620000  -0.01330000  35.27090000 0.11390000   131.53700000   319.92760000 
3329.0000 1527.00000000 100.10070000  54.57760000  0.01700000 11.27270000    0.06840000    3.77230000    4.05290000    2.70490000    2.73260000   0.00300000  -0.01320000  39.46060000 0.11390000   137.68110000   565.54920000 
3329.5000 1461.00000000 100.10070000  68.07680000  0.01810000 11.06670000    0.14880000    3.79420000    3.41280000    2.72330000    2.78990000  -0.00780000  -0.04680000  90.11320000 0.11390000   100.14530000   164.87770000 
3330.0000 1560.00000000 100.10070000  71.76860000  0.01560000 11.15960000    0.22980000    3.81380000    3.44440000    2.69930000    2.72440000   0.00620000  -0.00840000  75.57740000 0.11400000    87.73220000   144.30160000 
3330.5000 1446.00000000 100.10070000  51.50270000  0.01780000 12.14550000    0.27420000    3.85940000    4.69640000    2.67780000    2.72640000   0.01880000  -0.00960000  49.32980000 0.11400000   105.12850000   179.54930000 
3331.0000 1520.00000000 100.10070000  36.10670000  0.02440000 11.97580000    0.24960000    3.90000000    3.53940000    2.67070000    2.60960000   0.02300000   0.05870000  28.40170000 0.11430000   109.70530000   188.72010000 
3331.5000 1553.00000000 100.10070000  29.36760000  0.02690000 11.50300000    0.18300000    3.97970000    3.73840000    2.69040000    2.74240000   0.01150000  -0.01900000  28.99470000 0.11430000    79.75320000    93.40860000 
3332.0000 1453.00000000 100.10070000  28.49840000  0.01550000 11.24850000    0.11320000    4.10290000    4.21730000    2.71940000    2.76530000  -0.00550000  -0.03240000  30.31140000 0.11440000    81.98520000   121.52980000 
3332.5000 1550.00000000 100.10070000  29.60790000  0.01050000 11.20000000    0.06320000    4.20910000    4.31160000    2.71760000    2.74460000  -0.00440000  -0.02020000  25.27720000 0.11440000    75.69510000   101.20570000 
3333.0000 1498.00000000 100.10070000  29.81590000  0.00900000 11.21210000    0.03000000    4.13430000    4.27050000    2.69440000    2.69280000   0.00910000   0.01010000  32.71980000 0.11440000    97.10490000   153.92610000 
3333.5000 1517.00000000 100.10070000  31.48750000  0.00860000 11.20000000    0.01440000    3.97560000    4.05890000    2.67250000    2.66590000   0.02190000   0.02580000  30.67820000 0.11440000    89.97140000   116.96970000 
3334.0000 1539.00000000 100.10070000  33.25800000  0.00760000 11.32120000    0.00060000    3.83800000    3.11990000    2.65090000    2.64090000   0.03450000   0.04040000  30.80870000 0.11430000    88.12060000   113.20120000 
3334.5000 1485.00000000 100.10070000  36.35160000  0.00850000 11.20000000    0.01500000    3.90510000    4.44420000    2.67710000    2.68620000   0.01920000   0.01390000  38.02940000 0.11420000    95.29670000   151.53320000 
3335.0000 1536.00000000 100.10070000  45.15940000  0.00820000 11.17580000    0.02010000    3.92110000    3.82280000    2.68540000    2.63890000   0.01440000   0.04160000  41.13820000 0.11420000    54.36210000    48.46870000 
3335.5000 1473.00000000 100.10070000  55.42900000  0.00480000 11.17580000    0.02050000    3.81240000    4.07890000    2.68870000    2.70870000   0.01250000   0.00070000  58.10090000 0.11420000    57.05890000    58.03550000 
3336.0000 1561.00000000 100.10070000  62.81930000  0.00030000 11.20000000    0.00550000    3.62990000    3.46750000    2.66880000    2.67520000   0.02410000   0.02040000  68.83810000 0.11420000    55.98590000    53.44640000 
3336.5000 1509.00000000 100.10070000  63.46890000 -0.00160000 11.17580000    0.00250000    3.64490000    3.02350000    2.67750000    2.68550000   0.01900000   0.01430000  62.55740000 0.11420000   121.21240000   307.08880000 
3337.0000 1507.00000000 100.10070000  60.97510000 -0.00070000 11.17580000    0.01510000    4.00870000    4.30910000    2.70760000    2.73220000   0.00140000  -0.01300000  59.18160000 0.11420000   126.08440000   289.50800000 
3337.5000 1589.00000000 100.10070000  62.32280000  0.00020000 11.20000000    0.02240000    4.45000000    4.77210000    2.73000000    2.73130000  -0.01170000  -0.01240000  62.19130000 0.11420000   144.98280000   422.84320000 
3338.0000 1441.00000000 100.10070000  60.47020000  0.00100000 11.20000000    0.02790000    4.76860000    4.81580000    2.73850000    2.70680000  -0.01670000   0.00190000  66.43110000 0.11420000   169.73720000   851.83070000 
3338.5000 1575.00000000 100.10070000  66.81490000  0.00240000 11.20000000    0.02530000    4.79660000    4.82580000    2.73450000    2.71170000  -0.01430000  -0.00100000  53.89350000 0.11420000   177.97820000  1295.04160000 
3339.0000 1467.00000000 100.10070000  75.60750000  0.00370000 11.20000000    0.02210000    4.65770000    4.76060000    2.72560000    2.75730000  -0.00910000  -0.02760000  80.39130000 0.11430000   178.23410000  1041.31350000 
3339.5000 1487.00000000 100.10070000  76.18630000  0.00490000 11.20000000    0.02800000    4.50450000    4.11890000    2.72610000    2.72610000  -0.00940000  -0.00940000  92.15420000 0.11430000   170.11400000   770.92900000 
3340.0000 1512.00000000 100.10070000  62.21970000  0.00390000 11.21620000    0.03490000    4.44080000    4.45720000    2.71510000    2.72730000  -0.00300000  -0.01010000  55.35930000 0.11420000   172.73180000   807.51820000 
3340.5000 1449.00000000 100.10070000  46.57980000  0.00190000 11.23640000    0.05510000    4.50630000    4.73130000    2.71550000    2.71700000  -0.00320000  -0.00410000  38.48710000 0.11420000   196.60440000  1865.64720000 
