# LAS WORX (tm) v19.05.17 Header Hash (-8291391322489380521) Data Hash (-686710286087721855) DO NOT REMOVE THIS LINE
~VERSION INFORMATION SECTION
VERS. 2.00 : CWLS LOG ASCII STANDARD - VERSION 2.000000
WRAP. NO   : ONE LINE PER DEPTH STEP
#
#MNEM UNIT                   VALUE/NAME                            DESCRIPTION      
#---- ---- -----------------------------------------------   -----------------------
~WELL INFORMATION SECTION
STRT.F                                           875.0000 : START DEPTH
STOP.F                                          4970.0000 : STOP DEPTH
STEP.F                                             0.5000 : STEP
NULL.                                            -999.250 : NULL VALUE
API .                                      34157253340000 : API NUMBER
CNTY.                                          TUSCARAWAS : COUNTY
COMP.                  OHIO DIVISION OF GEOLOGICAL SURVEY : COMPANY
CTRY.                                                 USA : COUNTRY
DATE.                                            6/9/2007 : DATE
EPD .FT                                               927 : ELEVATION OF REF. DATUM
FILE.NM                         34157253340000_GND_PE_RES : FILE NAME
FLD .                                               SALEM : FIELD
GDAT.                                               NAD83 : GEODETIC DATUM
LAT .                                           40.353705 : LATITUDE
LOC .                             4360'NL & 70'EL OF TWP. : LOCATION
LON .                                          -81.489962 : LONGITUDE
SRVC.                                        SCHLUMBERGER : SERVICE COMPANY
STAT.                                                  OH : STATE
TLD .                                                4970 : TOTAL LOG DEPTH
TWP .                                               SALEM : TOWNSHIP
UWI .                                      34157253340000 : UWI NUMBER
WELL.      BELDEN BRICK UNIT (OHIO GEOLOGICAL SURVEY CO2) : WELL
WSTA.                                           PRODUCING : WELL STATUS
#
#MNEM UNIT API CODES                             DESCRIPTION                          
#---- ---- ---------   ---------------------------------------------------------------
~CURVE INFORMATION SECTION
DEPT.F              : DEPTH IN FEET
TENS.LBF            : CABLE TENSION {F13.4}
HTEM.DEGF           : HTC TEMPERATURE {F13.4}
GR  .GAPI           : GAMMA-RAY {F13.4}
NPHI.CFCF           : THERMAL NEUTRON POROSITY (RATIO METHOD) {F13.4}
HCAL.IN             : HRCC CAL. CALIPER {F13.4}
HDRA.G/C3           : HRDD DENSITY CORRECTION {F13.4}
PEFZ.B/E            : HRDD STANDARD RESOLUTION FORMATION PHOTOELECTRIC FACTOR {F13.4}
PEF8.B/E            : HRDD HIGH RESOLUTION FORMATION PHOTOELECTRIC FACTOR {F13.4}
RHOZ.G/C3           : HRDD STANDARD RESOLUTION FORMATION DENSITY {F13.4}
RHO8.G/C3           : HRDD HIGH RESOLUTION FORMATION DENSITY {F13.4}
DPHZ.CFCF           : HRDD STANDARD RESOLUTION DENSITY POROSITY {F13.4}
DPH8.CFCF           : HRDD HIGH RESOLUTION DENSITY POROSITY {F13.4}
HGR .GAPI           : HIRES GAMMA-RAY {F13.4}
HRM .OHMM           : HALS MUD RESISTIVITY {F13.4}
HLLS.OHMM           : HALS LATEROLOG SHALLOW RESISTIVITY {F13.4}
HLLD.OHMM           : HALS LATEROLOG DEEP RESISTIVITY {F13.4}
#
#    MNEM      UNIT  VALUE/NAME           DESCRIPTION       
#------------- ---- -------------   ------------------------
~PARAMETERS INFORMATION SECTION
APD          .F        12.000000 : ABOVE PERMANENT DATUM
EGROUND LEVEL.FT        917.0000 : 
EPD          .F       917.000000 : ELEVATION OF PERM. DATUM
LMF          .     KELLY BUSHING : LOG MEASURED FROM
PDAT         .      GROUND LEVEL : PERMANENT DATUM
RUN          .               ONE : RUN NUMBER
TD           .FT       4970.0000 : TOTAL DEPTH
WSTA         .               LOC : 
#
~OTHER INFORMATION SECTION
<DESCLOGPLOTSTART> NEURALOG PLOT DEFINITION
PLOTDEFVERSION: 3
LASFILE: S:\IMAGES\GEOPHYSRASTERLOGS\HOLDING_LAS\!WORKING FOLDER!\6_INCH_PEX_HA
DEPTHSCALE: 239.999996
RESOLUTION: 200
DEPTHLABELFREQ: 100.000000
HEAVYGRIDFREQ: 100.000000
MEDIUMGRIDFREQ: 50.000000
LIGHTGRIDFREQ: 10.000000
STARTTRACK:
LEFTX: 0.500000 INCH
RIGHTX: 3.000000 INCH
SCALETYPE: LINEAR
NUMCHARTDIVISIONS: 10
CURVE: GR 0.000000 150.000000 (255,0,0) LONG_DASH 2 Y
BACKUP: 150.000000 300.000000 (255,0,0) SOLID 2
BACKUP: -150.000000 0.000000 (255,0,0) SOLID 2
CURVE: HDRA -0.071900 2.642800 (255,131,0) SOLID 2 N
CURVE: PEFZ 2.124900 10.000000 (0,0,0) SOLID 2 N
CURVE: PEF8 1.984700 10.000000 (0,0,255) SOLID 2 N
CURVE: RHOZ 1.680700 4.434100 (0,131,131) SOLID 2 N
CURVE: RHO8 1.332600 4.628800 (255,0,255) SOLID 2 N
CURVE: DPHZ -1.008300 585.941500 (255,0,0) SOLID 2 N
CURVE: DPH8 -1.122100 585.941500 (255,131,0) SOLID 2 N
CURVE: HGR 11.070400 461.898600 (0,0,0) SOLID 2 N
CURVE: NPHI 0.200000 200.000000 (131,65,65) SOLID 2 Y
BACKUP: 200.000000 200000.000000 (131,65,65) SOLID 2
BACKUP: 0.000200 0.200000 (131,65,65) SOLID 2
ENDTRACK:
STARTTRACK:
LEFTX: 3.750000 INCH
RIGHTX: 8.750000 INCH
SCALETYPE: LOG
NUMCYCLES: 3
STARTCYCLE: 2
CURVE: HRM 0.200000 200.000000 (0,0,255) SOLID 2 N
CURVE: HLLS 0.200000 200.000000 (0,131,131) SOLID 2 N
CURVE: HLLD 0.200000 200.000000 (255,0,255) SOLID 2 N
ENDTRACK:
STARTTRACK:
LEFTX: 8.750000 INCH
RIGHTX: 11.250000 INCH
SCALETYPE: LINEAR
NUMCHARTDIVISIONS: 10
CURVE: HCAL 2.230300 15.927300 (255,0,0) SOLID 2 N
CURVE: TENS 864.000000 1950.000000 (0,131,131) SOLID 2 N
CURVE: HTEM 79.620100 103.334500 (255,0,255) SOLID 2 N
ENDTRACK:
<DESCLOGPLOTEND>
<DEPTHTRACK TYPE='REFERENCE' TRACK='1' LABEL='0' COLOR='0' HOR='0' />
<REFERENCE FONT='-96,0,-900,0,400,0,570491395,ARIAL NARROW' />
#
#  DEPT        TENS          HTEM          GR         NPHI        HCAL         HDRA          PEFZ          PEF8          RHOZ          RHO8          DPHZ         DPH8         HGR         HRM          HLLS           HLLD      
#--------- ------------- ------------ ------------ ----------- ----------- ------------- ------------- ------------- ------------- ------------- ------------ ------------ ------------ ---------- -------------- -------------- 
~ASCII LOG DATA
# ...
3863.0000 1652.00000000 102.25660000  31.38800000  0.01400000 11.15150000    0.00380000    4.88020000    4.77890000    2.89260000    2.88420000  -0.03420000  -0.02960000  36.01740000 0.08500000   150.64050000   280.57340000 
3863.5000 1529.00000000 102.07690000  32.08520000  0.01450000 11.16770000    0.00010000    5.00180000    4.72720000    2.87830000    2.88770000  -0.02640000  -0.03150000  31.77650000 0.08500000   129.43820000   172.74940000 
3864.0000 1652.00000000 102.07690000  26.94930000  0.01280000 11.17580000    0.00270000    5.39340000    4.98880000    2.90460000    2.92870000  -0.04080000  -0.05390000  28.38090000 0.08500000   129.25040000   172.20780000 
3864.5000 1586.00000000 102.25660000  23.90050000  0.01040000 11.20000000    0.00550000    5.93960000    6.72060000    2.94900000    2.90830000  -0.06500000  -0.04280000  20.69020000 0.08500000   160.85210000   319.63730000 
3865.0000 1582.00000000 102.07690000  22.78200000  0.00920000 11.18380000   -0.00290000    6.38920000    6.38420000    2.97440000    2.99580000  -0.07890000  -0.09060000  22.62510000 0.08490000   159.40240000   289.84120000 
3865.5000 1657.00000000 101.89730000  23.10280000  0.00780000 11.17580000   -0.01670000    6.63210000    6.18710000    2.97960000    2.94290000  -0.08170000  -0.06170000  25.03200000 0.08490000   154.74740000   239.24210000 
3866.0000 1560.00000000 102.25660000  22.46090000  0.00600000 11.17580000   -0.04040000    6.66690000    7.43480000    2.97210000    2.97660000  -0.07760000  -0.08010000  21.64790000 0.08490000   164.62900000   301.75440000 
3866.5000 1623.00000000 102.07690000  21.01680000  0.00560000 11.15150000   -0.03450000    6.47060000    6.23190000    2.97140000    2.99900000  -0.07730000  -0.09240000  20.69960000 0.08490000   171.25860000   332.76640000 
3867.0000 1582.00000000 102.07690000  22.62060000  0.00560000 11.12730000   -0.02380000    6.02950000    5.92610000    2.96280000    2.94590000  -0.07260000  -0.06330000  20.70030000 0.08480000   176.26290000   429.77210000 
3867.5000 1591.00000000 101.89730000  22.03770000  0.00870000 11.13940000   -0.00280000    5.52370000    5.51170000    2.93320000    2.94220000  -0.05640000  -0.06130000  26.46320000 0.08480000   164.30010000   396.95640000 
3868.0000 1632.00000000 102.07690000  25.24190000  0.00830000 11.12730000    0.00080000    5.13800000    4.76650000    2.89990000    2.89850000  -0.03820000  -0.03740000  18.93130000 0.08480000   124.44830000   170.71490000 
3868.5000 1582.00000000 102.07690000  26.53000000  0.01030000 11.15150000    0.00250000    5.04620000    4.87420000    2.87640000    2.89100000  -0.02540000  -0.03330000  30.31360000 0.08480000   122.09290000   180.05770000 
3869.0000 1629.00000000 101.89730000  28.55700000  0.00880000 11.15150000    0.00340000    5.10090000    4.90460000    2.87900000    2.87120000  -0.02680000  -0.02250000  30.32730000 0.08480000   125.04860000   220.63230000 
3869.5000 1592.00000000 102.07690000  25.99090000  0.00700000 11.15150000    0.00550000    5.05610000    5.84060000    2.88450000    2.92030000  -0.02980000  -0.04930000  25.03200000 0.08470000   124.17960000   340.62940000 
3870.0000 1605.00000000 101.89730000  23.90490000  0.00040000 11.15150000    0.03950000    4.51970000    4.72950000    2.75590000    2.91960000   0.04050000  -0.04900000  22.61580000 0.08460000   117.90340000   420.55500000 
3870.5000 1599.00000000 101.89730000  27.26880000 -0.00310000 11.15150000    0.10170000    3.77030000    4.14470000    2.49960000    2.69050000   0.18060000   0.07630000  24.06930000 0.08460000    88.35750000   586.18380000 
3871.0000 1616.00000000 102.07690000  28.07480000 -0.00270000 11.28480000    0.13290000    3.02480000    2.20990000    2.10460000    1.78830000   0.39640000   0.56920000  35.12740000 0.08460000   107.38000000   897.19740000 
3871.5000 1625.00000000 101.89730000  28.07080000  0.00590000 12.45250000    0.13570000    2.67870000    2.42060000    1.83780000    1.74610000   0.54220000   0.59230000  25.03200000 0.08450000   100.23860000  1241.84690000 
3872.0000 1598.00000000 101.89730000  25.99070000  0.02390000 12.88890000    0.10630000    2.55630000    2.68940000    1.68630000    1.67060000   0.62500000   0.63350000  24.05850000 0.08460000   112.44280000  2578.72070000 
3872.5000 1629.00000000 102.07690000  25.18840000  0.02650000 13.74550000    0.12410000    2.58070000    2.82770000    1.71020000    1.68150000   0.61190000   0.62760000  28.88310000 0.08470000   113.64790000  4027.23120000 
3873.0000 1607.00000000 102.07690000  24.86760000  0.01550000 13.96360000    0.16040000    2.62300000    3.05660000    1.74080000    1.79340000   0.59520000   0.56640000  22.62590000 0.08470000   104.03400000  2603.43820000 
3873.5000 1570.00000000 101.89730000  21.10570000  0.02830000 12.82420000    0.20900000    2.65950000    2.44700000    1.76470000    1.87940000   0.58210000   0.51950000  23.09350000 0.08470000   100.21990000  1879.38810000 
3874.0000 1634.00000000 102.07690000  19.82200000  0.10860000 14.16970000    0.22660000    2.81860000    2.63170000    1.82800000    2.18470000   0.54760000   0.35260000  17.16540000 0.08480000   104.32300000  1533.98330000 
3874.5000 1564.00000000 102.07690000  24.47310000  0.14850000 14.28690000    0.31340000    3.07950000    2.28550000    2.21120000    2.57380000   0.33810000   0.14000000  18.77400000 0.08480000   116.04960000  1502.73960000 
3875.0000 1612.00000000 102.25660000  36.57900000  0.15410000 11.96770000    0.31700000    3.41360000    5.29110000    2.60960000    3.08840000   0.12040000  -0.14120000  37.04870000 0.08490000    92.89150000  1139.13830000 
3875.5000 1643.00000000 102.07690000  51.49130000  0.11150000 11.20000000    0.28190000    3.57630000    3.58530000    2.88170000    2.92490000  -0.02830000  -0.05180000  53.91510000 0.08490000    41.74700000    60.52780000 
3876.0000 1568.00000000 102.07690000  58.07640000  0.11750000 11.24850000    0.14190000    3.59200000    3.26300000    2.80870000    2.78540000   0.01160000   0.02440000  63.50400000 0.08490000    31.71760000    43.06200000 
3876.5000 1659.00000000 102.25660000  59.19010000  0.10730000 11.15150000    0.06770000    3.50760000    3.26370000    2.72250000    2.72890000   0.05870000   0.05520000  56.80350000 0.08480000    30.47400000    33.48870000 
3877.0000 1596.00000000 102.07690000  59.36120000  0.08640000 11.17580000    0.04730000    3.55360000    3.50650000    2.69460000    2.71110000   0.07400000   0.06500000  57.25680000 0.08480000    36.32160000    43.08970000 
3877.5000 1623.00000000 102.07690000  55.67060000  0.06310000 11.15150000    0.03710000    3.68230000    3.75540000    2.67630000    2.69310000   0.08400000   0.07480000  64.02420000 0.08480000    44.71590000    54.78500000 
3878.0000 1615.00000000 102.07690000  51.66100000  0.06100000 11.17580000    0.03610000    3.78900000    3.82850000    2.64940000    2.61200000   0.09870000   0.11910000  45.73160000 0.08480000    71.09210000   125.29570000 
3878.5000 1581.00000000 102.25660000  46.36580000  0.06830000 11.22420000    0.03210000    3.81720000    3.86210000    2.62660000    2.62440000   0.11120000   0.11230000  45.22790000 0.08480000    86.47960000   219.23820000 
3879.0000 1618.00000000 101.89730000  51.49040000  0.07970000 11.16360000    0.03240000    3.83680000    3.79360000    2.62220000    2.60150000   0.11360000   0.12480000  48.13850000 0.08480000   114.30180000   553.22280000 
3879.5000 1585.00000000 102.07690000  54.22580000  0.08430000 11.16770000    0.02960000    3.88400000    3.77860000    2.63530000    2.64600000   0.10640000   0.10050000  61.10930000 0.08480000    90.36200000   173.28470000 
3880.0000 1618.00000000 102.25660000  55.02810000  0.10880000 11.15150000    0.02490000    3.97200000    4.04390000    2.65730000    2.67670000   0.09440000   0.08380000  52.58840000 0.08480000    83.73020000   162.09140000 
3880.5000 1618.00000000 102.07690000  54.95470000  0.11670000 11.15960000    0.02800000    4.09750000    4.17730000    2.72120000    2.69340000   0.05940000   0.07460000  50.95210000 0.08480000    65.04220000    89.93000000 
