# LAS WORX (tm) v19.05.17 Header Hash (-8291391322489380521) Data Hash (-686710286087721855) DO NOT REMOVE THIS LINE
~VERSION INFORMATION SECTION
VERS. 2.00 : CWLS LOG ASCII STANDARD - VERSION 2.000000
WRAP. NO   : ONE LINE PER DEPTH STEP
#
#MNEM UNIT                   VALUE/NAME                            DESCRIPTION      
#---- ---- -----------------------------------------------   -----------------------
~WELL INFORMATION SECTION
STRT.F                                           875.0000 : START DEPTH
STOP.F                                          4970.0000 : STOP DEPTH
STEP.F                                             0.5000 : STEP
NULL.                                            -999.250 : NULL VALUE
API .                                      34157253340000 : API NUMBER
CNTY.                                          TUSCARAWAS : COUNTY
COMP.                  OHIO DIVISION OF GEOLOGICAL SURVEY : COMPANY
CTRY.                                                 USA : COUNTRY
DATE.                                            6/9/2007 : DATE
EPD .FT                                               927 : ELEVATION OF REF. DATUM
FILE.NM                         34157253340000_GND_PE_RES : FILE NAME
FLD .                                               SALEM : FIELD
GDAT.                                               NAD83 : GEODETIC DATUM
LAT .                                           40.353705 : LATITUDE
LOC .                             4360'NL & 70'EL OF TWP. : LOCATION
LON .                                          -81.489962 : LONGITUDE
SRVC.                                        SCHLUMBERGER : SERVICE COMPANY
STAT.                                                  OH : STATE
TLD .                                                4970 : TOTAL LOG DEPTH
TWP .                                               SALEM : TOWNSHIP
UWI .                                      34157253340000 : UWI NUMBER
WELL.      BELDEN BRICK UNIT (OHIO GEOLOGICAL SURVEY CO2) : WELL
WSTA.                                           PRODUCING : WELL STATUS
#
#MNEM UNIT API CODES                             DESCRIPTION                          
#---- ---- ---------   ---------------------------------------------------------------
~CURVE INFORMATION SECTION
DEPT.F              : DEPTH IN FEET
TENS.LBF            : CABLE TENSION {F13.4}
HTEM.DEGF           : HTC TEMPERATURE {F13.4}
GR  .GAPI           : GAMMA-RAY {F13.4}
NPHI.CFCF           : THERMAL NEUTRON POROSITY (RATIO METHOD) {F13.4}
HCAL.IN             : HRCC CAL. CALIPER {F13.4}
HDRA.G/C3           : HRDD DENSITY CORRECTION {F13.4}
PEFZ.B/E            : HRDD STANDARD RESOLUTION FORMATION PHOTOELECTRIC FACTOR {F13.4}
PEF8.B/E            : HRDD HIGH RESOLUTION FORMATION PHOTOELECTRIC FACTOR {F13.4}
RHOZ.G/C3           : HRDD STANDARD RESOLUTION FORMATION DENSITY {F13.4}
RHO8.G/C3           : HRDD HIGH RESOLUTION FORMATION DENSITY {F13.4}
DPHZ.CFCF           : HRDD STANDARD RESOLUTION DENSITY POROSITY {F13.4}
DPH8.CFCF           : HRDD HIGH RESOLUTION DENSITY POROSITY {F13.4}
HGR .GAPI           : HIRES GAMMA-RAY {F13.4}
HRM .OHMM           : HALS MUD RESISTIVITY {F13.4}
HLLS.OHMM           : HALS LATEROLOG SHALLOW RESISTIVITY {F13.4}
HLLD.OHMM           : HALS LATEROLOG DEEP RESISTIVITY {F13.4}
#
#    MNEM      UNIT  VALUE/NAME           DESCRIPTION       
#------------- ---- -------------   ------------------------
~PARAMETERS INFORMATION SECTION
APD          .F        12.000000 : ABOVE PERMANENT DATUM
EGROUND LEVEL.FT        917.0000 : 
EPD          .F       917.000000 : ELEVATION OF PERM. DATUM
LMF          .     KELLY BUSHING : LOG MEASURED FROM
PDAT         .      GROUND LEVEL : PERMANENT DATUM
RUN          .               ONE : RUN NUMBER
TD           .FT       4970.0000 : TOTAL DEPTH
WSTA         .               LOC : 
#
~OTHER INFORMATION SECTION
<DESCLOGPLOTSTART> NEURALOG PLOT DEFINITION
PLOTDEFVERSION: 3
LASFILE: S:\IMAGES\GEOPHYSRASTERLOGS\HOLDING_LAS\!WORKING FOLDER!\6_INCH_PEX_HA
DEPTHSCALE: 239.999996
RESOLUTION: 200
DEPTHLABELFREQ: 100.000000
HEAVYGRIDFREQ: 100.000000
MEDIUMGRIDFREQ: 50.000000
LIGHTGRIDFREQ: 10.000000
STARTTRACK:
LEFTX: 0.500000 INCH
RIGHTX: 3.000000 INCH
SCALETYPE: LINEAR
NUMCHARTDIVISIONS: 10
CURVE: GR 0.000000 150.000000 (255,0,0) LONG_DASH 2 Y
BACKUP: 150.000000 300.000000 (255,0,0) SOLID 2
BACKUP: -150.000000 0.000000 (255,0,0) SOLID 2
CURVE: HDRA -0.071900 2.642800 (255,131,0) SOLID 2 N
CURVE: PEFZ 2.124900 10.000000 (0,0,0) SOLID 2 N
CURVE: PEF8 1.984700 10.000000 (0,0,255) SOLID 2 N
CURVE: RHOZ 1.680700 4.434100 (0,131,131) SOLID 2 N
CURVE: RHO8 1.332600 4.628800 (255,0,255) SOLID 2 N
CURVE: DPHZ -1.008300 585.941500 (255,0,0) SOLID 2 N
CURVE: DPH8 -1.122100 585.941500 (255,131,0) SOLID 2 N
CURVE: HGR 11.070400 461.898600 (0,0,0) SOLID 2 N
CURVE: NPHI 0.200000 200.000000 (131,65,65) SOLID 2 Y
BACKUP: 200.000000 200000.000000 (131,65,65) SOLID 2
BACKUP: 0.000200 0.200000 (131,65,65) SOLID 2
ENDTRACK:
STARTTRACK:
LEFTX: 3.750000 INCH
RIGHTX: 8.750000 INCH
SCALETYPE: LOG
NUMCYCLES: 3
STARTCYCLE: 2
CURVE: HRM 0.200000 200.000000 (0,0,255) SOLID 2 N
CURVE: HLLS 0.200000 200.000000 (0,131,131) SOLID 2 N
CURVE: HLLD 0.200000 200.000000 (255,0,255) SOLID 2 N
ENDTRACK:
STARTTRACK:
LEFTX: 8.750000 INCH
RIGHTX: 11.250000 INCH
SCALETYPE: LINEAR
NUMCHARTDIVISIONS: 10
CURVE: HCAL 2.230300 15.927300 (255,0,0) SOLID 2 N
CURVE: TENS 864.000000 1950.000000 (0,131,131) SOLID 2 N
CURVE: HTEM 79.620100 103.334500 (255,0,255) SOLID 2 N
ENDTRACK:
<DESCLOGPLOTEND>
<DEPTHTRACK TYPE='REFERENCE' TRACK='1' LABEL='0' COLOR='0' HOR='0' />
<REFERENCE FONT='-96,0,-900,0,400,0,570491395,ARIAL NARROW' />
#
#  DEPT        TENS          HTEM          GR         NPHI        HCAL         HDRA          PEFZ          PEF8          RHOZ          RHO8          DPHZ         DPH8         HGR         HRM          HLLS           HLLD      
#--------- ------------- ------------ ------------ ----------- ----------- ------------- ------------- ------------- ------------- ------------- ------------ ------------ ------------ ---------- -------------- -------------- 
~ASCII LOG DATA
# ...
4961.0000 1534.00000000 100.10070000 237.57420000  0.29530000  2.23030000    0.14650000    4.05260000    4.04650000    2.80010000    2.79950000  -0.05270000  -0.05230000 237.57420000 2.02980000 60000.00000000   231.64630000 
4961.5000 1455.00000000 100.10070000 237.57420000  0.29530000  2.23030000    0.14640000    4.05230000    4.04620000    2.80000000    2.79930000  -0.05260000  -0.05220000 237.57420000 0.01000000  2296.26200000 60000.00000000 
4962.0000 1381.00000000 100.10070000 237.57420000  0.29530000  2.23030000    0.14620000    4.05160000    4.04550000    2.79980000    2.79900000  -0.05250000  -0.05210000 237.57420000 5.34720000 60000.00000000 60000.00000000 
4962.5000 1292.00000000 100.10070000 237.57420000  0.29530000  2.23030000    0.14570000    4.05000000    4.04390000    2.79930000    2.79830000  -0.05220000  -0.05160000 237.57420000 0.06870000  7352.72310000  4136.72710000 
4963.0000 1229.00000000 100.10070000 237.57420000  0.29530000  2.23030000    0.14470000    4.04710000    4.04110000    2.79830000    2.79680000  -0.05160000  -0.05080000 237.57420000 0.01000000 60000.00000000 60000.00000000 
4963.5000 1157.00000000 100.10070000 237.57420000  0.29530000  2.23030000    0.14280000    4.04280000    4.03660000    2.79690000    2.79210000  -0.05080000  -0.04800000 237.57420000 0.08030000    31.90790000    37.60540000 
4964.0000 1075.00000000 100.10070000 237.57420000  0.29530000  2.23030000    1.08050000    4.02580000    4.02700000    2.78740000    2.78200000  -0.04530000  -0.04210000 237.57420000 0.08030000    31.93890000    38.03500000 
4964.5000 1013.00000000 100.10070000 237.57420000  0.29530000  2.23030000    2.01870000    4.00950000    4.01770000    2.77850000    2.76530000  -0.04000000  -0.03240000 237.57420000 0.08030000    33.13680000    41.06570000 
4965.0000 1011.00000000 100.10070000 237.57420000  0.29530000  2.23030000    2.64280000    3.98630000    3.97520000    2.77080000    2.72520000 585.94150000 585.94150000 237.57420000 0.08030000    33.13680000    41.06570000 
4965.5000  980.00000000 100.10070000 237.57420000  0.29530000  2.23030000 -999.250      -999.250      -999.250      -999.250      -999.250      585.94150000 585.94150000 237.57420000 0.08030000    33.13680000    41.06570000 
4966.0000 1009.00000000 100.10070000 237.57420000  0.29530000  2.23030000 -999.250      -999.250      -999.250      -999.250      -999.250      585.94150000 585.94150000 237.57420000 0.08030000    33.13680000    41.06570000 
4966.5000  963.00000000 100.10070000 237.57420000  0.29530000  2.23030000 -999.250      -999.250      -999.250      -999.250      -999.250      585.94150000 585.94150000 237.57420000 0.08030000    33.13680000    41.06570000 
4967.0000  992.00000000 100.10070000 237.57420000  0.29530000  2.23030000 -999.250      -999.250      -999.250      -999.250      -999.250      585.94150000 585.94150000 237.57420000 0.08030000    33.13680000    41.06570000 
4967.5000  955.00000000 100.10070000 237.57420000  0.29530000  2.23030000 -999.250      -999.250      -999.250      -999.250      -999.250      585.94150000 585.94150000 237.57420000 0.08030000    33.13680000    41.06570000 
4968.0000  982.00000000 100.10070000 237.57420000  0.29530000  2.23030000 -999.250      -999.250      -999.250      -999.250      -999.250      585.94150000 585.94150000 237.57420000 0.08030000    33.13680000    41.06570000 
4968.5000  950.00000000 100.10070000 237.57420000  0.29530000  2.23030000 -999.250      -999.250      -999.250      -999.250      -999.250      585.94150000 585.94150000 237.57420000 0.08030000    33.13680000    41.06570000 
4969.0000  886.00000000 100.10070000 237.57420000  0.29530000  2.23030000 -999.250      -999.250      -999.250      -999.250      -999.250      585.94150000 585.94150000 237.57420000 0.08030000    33.13680000    41.06570000 
4969.5000  983.00000000 100.10070000 237.57420000  0.29530000  2.23030000 -999.250      -999.250      -999.250      -999.250      -999.250      585.94150000 585.94150000 237.57420000 0.08030000    33.13680000    41.06570000 
4970.0000  864.00000000 100.10070000 237.57420000  0.29530000  2.23030000 -999.250      -999.250      -999.250      -999.250      -999.250      585.94150000 585.94150000 237.57420000 0.08030000    33.13680000    41.06570000 
