# LAS WORX (tm) v19.05.17 Header Hash (-8291391322489380521) Data Hash (-686710286087721855) DO NOT REMOVE THIS LINE
~VERSION INFORMATION SECTION
VERS. 2.00 : CWLS LOG ASCII STANDARD - VERSION 2.000000
WRAP. NO   : ONE LINE PER DEPTH STEP
#
#MNEM UNIT                   VALUE/NAME                            DESCRIPTION      
#---- ---- -----------------------------------------------   -----------------------
~WELL INFORMATION SECTION
STRT.F                                           875.0000 : START DEPTH
STOP.F                                          4970.0000 : STOP DEPTH
STEP.F                                             0.5000 : STEP
NULL.                                            -999.250 : NULL VALUE
API .                                      34157253340000 : API NUMBER
CNTY.                                          TUSCARAWAS : COUNTY
COMP.                  OHIO DIVISION OF GEOLOGICAL SURVEY : COMPANY
CTRY.                                                 USA : COUNTRY
DATE.                                            6/9/2007 : DATE
EPD .FT                                               927 : ELEVATION OF REF. DATUM
FILE.NM                         34157253340000_GND_PE_RES : FILE NAME
FLD .                                               SALEM : FIELD
GDAT.                                               NAD83 : GEODETIC DATUM
LAT .                                           40.353705 : LATITUDE
LOC .                             4360'NL & 70'EL OF TWP. : LOCATION
LON .                                          -81.489962 : LONGITUDE
SRVC.                                        SCHLUMBERGER : SERVICE COMPANY
STAT.                                                  OH : STATE
TLD .                                                4970 : TOTAL LOG DEPTH
TWP .                                               SALEM : TOWNSHIP
UWI .                                      34157253340000 : UWI NUMBER
WELL.      BELDEN BRICK UNIT (OHIO GEOLOGICAL SURVEY CO2) : WELL
WSTA.                                           PRODUCING : WELL STATUS
#
#MNEM UNIT API CODES                             DESCRIPTION                          
#---- ---- ---------   ---------------------------------------------------------------
~CURVE INFORMATION SECTION
DEPT.F              : DEPTH IN FEET
TENS.LBF            : CABLE TENSION {F13.4}
HTEM.DEGF           : HTC TEMPERATURE {F13.4}
GR  .GAPI           : GAMMA-RAY {F13.4}
NPHI.CFCF           : THERMAL NEUTRON POROSITY (RATIO METHOD) {F13.4}
HCAL.IN             : HRCC CAL. CALIPER {F13.4}
HDRA.G/C3           : HRDD DENSITY CORRECTION {F13.4}
PEFZ.B/E            : HRDD STANDARD RESOLUTION FORMATION PHOTOELECTRIC FACTOR {F13.4}
PEF8.B/E            : HRDD HIGH RESOLUTION FORMATION PHOTOELECTRIC FACTOR {F13.4}
RHOZ.G/C3           : HRDD STANDARD RESOLUTION FORMATION DENSITY {F13.4}
RHO8.G/C3           : HRDD HIGH RESOLUTION FORMATION DENSITY {F13.4}
DPHZ.CFCF           : HRDD STANDARD RESOLUTION DENSITY POROSITY {F13.4}
DPH8.CFCF           : HRDD HIGH RESOLUTION DENSITY POROSITY {F13.4}
HGR .GAPI           : HIRES GAMMA-RAY {F13.4}
HRM .OHMM           : HALS MUD RESISTIVITY {F13.4}
HLLS.OHMM           : HALS LATEROLOG SHALLOW RESISTIVITY {F13.4}
HLLD.OHMM           : HALS LATEROLOG DEEP RESISTIVITY {F13.4}
#
#    MNEM      UNIT  VALUE/NAME           DESCRIPTION       
#------------- ---- -------------   ------------------------
~PARAMETERS INFORMATION SECTION
APD          .F        12.000000 : ABOVE PERMANENT DATUM
EGROUND LEVEL.FT        917.0000 : 
EPD          .F       917.000000 : ELEVATION OF PERM. DATUM
LMF          .     KELLY BUSHING : LOG MEASURED FROM
PDAT         .      GROUND LEVEL : PERMANENT DATUM
RUN          .               ONE : RUN NUMBER
TD           .FT       4970.0000 : TOTAL DEPTH
WSTA         .               LOC : 
#
~OTHER INFORMATION SECTION
<DESCLOGPLOTSTART> NEURALOG PLOT DEFINITION
PLOTDEFVERSION: 3
LASFILE: S:\IMAGES\GEOPHYSRASTERLOGS\HOLDING_LAS\!WORKING FOLDER!\6_INCH_PEX_HA
DEPTHSCALE: 239.999996
RESOLUTION: 200
DEPTHLABELFREQ: 100.000000
HEAVYGRIDFREQ: 100.000000
MEDIUMGRIDFREQ: 50.000000
LIGHTGRIDFREQ: 10.000000
STARTTRACK:
LEFTX: 0.500000 INCH
RIGHTX: 3.000000 INCH
SCALETYPE: LINEAR
NUMCHARTDIVISIONS: 10
CURVE: GR 0.000000 150.000000 (255,0,0) LONG_DASH 2 Y
BACKUP: 150.000000 300.000000 (255,0,0) SOLID 2
BACKUP: -150.000000 0.000000 (255,0,0) SOLID 2
CURVE: HDRA -0.071900 2.642800 (255,131,0) SOLID 2 N
CURVE: PEFZ 2.124900 10.000000 (0,0,0) SOLID 2 N
CURVE: PEF8 1.984700 10.000000 (0,0,255) SOLID 2 N
CURVE: RHOZ 1.680700 4.434100 (0,131,131) SOLID 2 N
CURVE: RHO8 1.332600 4.628800 (255,0,255) SOLID 2 N
CURVE: DPHZ -1.008300 585.941500 (255,0,0) SOLID 2 N
CURVE: DPH8 -1.122100 585.941500 (255,131,0) SOLID 2 N
CURVE: HGR 11.070400 461.898600 (0,0,0) SOLID 2 N
CURVE: NPHI 0.200000 200.000000 (131,65,65) SOLID 2 Y
BACKUP: 200.000000 200000.000000 (131,65,65) SOLID 2
BACKUP: 0.000200 0.200000 (131,65,65) SOLID 2
ENDTRACK:
STARTTRACK:
LEFTX: 3.750000 INCH
RIGHTX: 8.750000 INCH
SCALETYPE: LOG
NUMCYCLES: 3
STARTCYCLE: 2
CURVE: HRM 0.200000 200.000000 (0,0,255) SOLID 2 N
CURVE: HLLS 0.200000 200.000000 (0,131,131) SOLID 2 N
CURVE: HLLD 0.200000 200.000000 (255,0,255) SOLID 2 N
ENDTRACK:
STARTTRACK:
LEFTX: 8.750000 INCH
RIGHTX: 11.250000 INCH
SCALETYPE: LINEAR
NUMCHARTDIVISIONS: 10
CURVE: HCAL 2.230300 15.927300 (255,0,0) SOLID 2 N
CURVE: TENS 864.000000 1950.000000 (0,131,131) SOLID 2 N
CURVE: HTEM 79.620100 103.334500 (255,0,255) SOLID 2 N
ENDTRACK:
<DESCLOGPLOTEND>
<DEPTHTRACK TYPE='REFERENCE' TRACK='1' LABEL='0' COLOR='0' HOR='0' />
<REFERENCE FONT='-96,0,-900,0,400,0,570491395,ARIAL NARROW' />
#
#  DEPT        TENS          HTEM          GR         NPHI        HCAL         HDRA          PEFZ          PEF8          RHOZ          RHO8          DPHZ         DPH8         HGR         HRM          HLLS           HLLD      
#--------- ------------- ------------ ------------ ----------- ----------- ------------- ------------- ------------- ------------- ------------- ------------ ------------ ------------ ---------- -------------- -------------- 
~ASCII LOG DATA
# ...
1973.0000 1201.00000000  90.04010000 215.49140000  0.28180000 11.32120000    0.01460000    3.74390000    3.79440000    2.74080000    2.74250000  -0.01800000  -0.01900000 205.21250000 0.11240000    28.35610000    28.93480000 
1973.5000 1243.00000000  89.68080000 216.99540000  0.30880000 11.32120000    0.00670000    3.69020000    3.76070000    2.73290000    2.75340000  -0.01340000  -0.02540000 220.71990000 0.11240000    27.40460000    27.37370000 
1974.0000 1207.00000000  89.68080000 219.05670000  0.33540000 11.32120000    0.01210000    3.70450000    3.60420000    2.76120000    2.75560000  -0.03000000  -0.02660000 229.03930000 0.11240000    26.99170000    25.74270000 
1974.5000 1207.00000000  89.68080000 215.71890000  0.34840000 11.32120000    0.01220000    3.69850000    3.66060000    2.76280000    2.73750000  -0.03090000  -0.01610000 211.52500000 0.11240000    27.10470000    27.22100000 
1975.0000 1259.00000000  89.68080000 214.28790000  0.32520000 11.29700000    0.01670000    3.75230000    3.73770000    2.76220000    2.74890000  -0.03050000  -0.02280000 208.18670000 0.11230000    28.77780000    30.04050000 
1975.5000 1208.00000000  89.68080000 203.41990000  0.32910000 11.24850000    0.00970000    3.74240000    3.81660000    2.72560000    2.75400000  -0.00910000  -0.02570000 219.89090000 0.11230000    28.40130000    29.16610000 
1976.0000 1163.00000000  89.68080000 201.52730000  0.30680000 11.29700000    0.01520000    3.74020000    3.73690000    2.72550000    2.74220000  -0.00910000  -0.01880000 176.48580000 0.11230000    30.59580000    33.50800000 
1976.5000 1254.00000000  89.68080000 196.02450000  0.30910000 11.24850000    0.01100000    3.71130000    3.70520000    2.71510000    2.70420000  -0.00300000   0.00340000 202.00930000 0.11230000    30.78380000    31.88850000 
1977.0000 1280.00000000  89.68080000 201.43910000  0.27610000 11.24850000    0.01170000    3.69160000    3.65680000    2.71450000    2.70040000  -0.00260000   0.00560000 204.24320000 0.11230000    32.21400000    34.20240000 
1977.5000 1151.00000000  89.68080000 201.16680000  0.25670000 11.22420000    0.00420000    3.63350000    3.68940000    2.69970000    2.70340000   0.00600000   0.00390000 196.15210000 0.11230000    31.39830000    34.53740000 
1978.0000 1244.00000000  89.68080000 198.77550000  0.25990000 11.20000000    0.00400000    3.62490000    3.60650000    2.70350000    2.71510000   0.00380000  -0.00300000 204.66970000 0.11230000    32.87580000    35.24510000 
1978.5000 1260.00000000  89.68080000 201.48050000  0.27130000 11.24850000    0.00250000    3.66420000    3.51670000    2.70740000    2.70690000   0.00150000   0.00180000 200.11190000 0.11260000    32.58470000    34.66020000 
1979.0000 1144.00000000  90.04010000 199.41700000  0.30810000 11.27270000    0.00180000    3.71230000    3.87410000    2.71520000    2.73630000  -0.00300000  -0.01540000 203.97960000 0.11250000    31.55000000    32.37990000 
1979.5000 1265.00000000  89.68080000 193.10000000  0.33620000 11.27270000    0.00180000    3.74080000    3.76280000    2.72110000    2.71240000  -0.00650000  -0.00140000 193.82140000 0.11250000    29.78340000    30.70330000 
1980.0000 1296.00000000  89.68080000 195.50490000  0.35760000 11.27270000    0.00310000    3.72480000    3.62580000    2.72990000    2.73400000  -0.01160000  -0.01400000 183.31550000 0.11220000    28.76140000    29.65210000 
1980.5000 1170.00000000  89.68080000 193.78530000  0.35430000 11.29700000    0.00240000    3.74360000    3.79710000    2.72880000    2.73170000  -0.01100000  -0.01270000 212.03020000 0.11220000    28.23830000    28.89620000 
1981.0000 1199.00000000  90.04010000 205.51680000  0.33530000 11.28480000    0.00140000    3.73990000    3.79160000    2.72910000    2.73610000  -0.01120000  -0.01520000 188.15120000 0.11210000    27.54700000    27.81690000 
1981.5000 1284.00000000  89.68080000 201.12080000  0.33600000 11.27270000    0.00340000    3.71710000    3.67950000    2.73660000    2.73550000  -0.01560000  -0.01490000 218.21200000 0.11210000    28.46390000    30.08030000 
1982.0000 1170.00000000  90.04010000 207.00440000  0.32370000 11.27270000    0.00830000    3.68850000    3.58130000    2.74690000    2.77090000  -0.02160000  -0.03560000 201.86150000 0.11210000    28.93760000    30.02630000 
1982.5000 1126.00000000  90.04010000 210.51570000  0.33530000 11.29700000    0.00930000    3.65340000    3.71490000    2.74430000    2.74470000  -0.02010000  -0.02030000 207.51460000 0.11210000    28.19690000    28.54730000 
1983.0000 1258.00000000  89.68080000 204.98890000  0.33470000 11.29700000    0.01380000    3.65600000    3.69830000    2.74210000    2.72030000  -0.01880000  -0.00600000 225.11390000 0.11210000    27.32910000    27.27200000 
1983.5000 1250.00000000  89.68080000 199.44920000  0.31460000 11.28480000    0.01210000    3.65120000    3.69400000    2.72440000    2.71140000  -0.00840000  -0.00080000 182.11420000 0.11210000    29.07250000    29.68000000 
1984.0000 1163.00000000  90.04010000 185.62590000  0.30280000 11.24850000    0.02020000    3.71810000    3.64680000    2.72140000    2.70500000  -0.00670000   0.00290000 184.57700000 0.11210000    32.65360000    36.25230000 
1984.5000 1207.00000000  89.68080000 191.94290000  0.28960000 11.22420000    0.02590000    3.80640000    3.83150000    2.72240000    2.72900000  -0.00720000  -0.01110000 191.96750000 0.11210000    29.34100000    30.15570000 
1985.0000 1240.00000000  90.04010000 197.78950000  0.31400000 11.29700000    0.03330000    3.85200000    4.08140000    2.74760000    2.79210000  -0.02200000  -0.04800000 201.77140000 0.11210000    27.64060000    28.15780000 
1985.5000 1179.00000000  90.04010000 194.35400000  0.29640000 11.32120000    0.02880000    3.78920000    3.75430000    2.75330000    2.73800000  -0.02530000  -0.01640000 207.46590000 0.11210000    25.27240000    24.38140000 
1986.0000 1187.00000000  90.04010000 196.22280000  0.28820000 11.27270000    0.01600000    3.64640000    3.53990000    2.73340000    2.71520000  -0.01370000  -0.00310000 175.55080000 0.11210000    28.00380000    28.92950000 
1986.5000 1250.00000000  89.68080000 183.09390000  0.27060000 11.24850000    0.00880000    3.55960000    3.49980000    2.70940000    2.71280000   0.00030000  -0.00160000 202.33830000 0.11210000    29.78860000    31.09600000 
1987.0000 1216.00000000  90.04010000 190.82530000  0.25980000 11.24850000    0.00890000    3.57380000    3.61600000    2.70660000    2.71190000   0.00200000  -0.00110000 169.13550000 0.11210000    32.28430000    34.82720000 
1987.5000 1157.00000000  89.68080000 181.63190000  0.25270000 11.20000000    0.01610000    3.63700000    3.56910000    2.72120000    2.71570000  -0.00650000  -0.00330000 201.36900000 0.11210000    35.90620000    37.86580000 
1988.0000 1229.00000000  89.68080000 189.19010000  0.27290000 11.22420000    0.01410000    3.66100000    3.64340000    2.72350000    2.73460000  -0.00790000  -0.01440000 180.18600000 0.11220000    36.49680000    40.22280000 
1988.5000 1227.00000000  89.68080000 188.58850000  0.29990000 11.28480000    0.01030000    3.65620000    3.61940000    2.72270000    2.72420000  -0.00740000  -0.00830000 193.46700000 0.11220000    32.46810000    32.95780000 
1989.0000 1205.00000000  90.04010000 195.12290000  0.31050000 11.27270000    0.00370000    3.63300000    3.70540000    2.72060000    2.72630000  -0.00620000  -0.00950000 190.50870000 0.11220000    29.62900000    30.24320000 
1989.5000 1215.00000000  89.68080000 198.34540000  0.31070000 11.27270000    0.00240000    3.66140000    3.75840000    2.72000000    2.73650000  -0.00590000  -0.01550000 195.82470000 0.11220000    28.26330000    28.79940000 
1990.0000 1186.00000000  90.04010000 195.68180000  0.28910000 11.29700000    0.00350000    3.66880000    3.63260000    2.72590000    2.73090000  -0.00930000  -0.01220000 200.15860000 0.11220000    28.36340000    29.11860000 
1990.5000 1189.00000000  90.04010000 189.49130000  0.27690000 11.29700000    0.01630000    3.71280000    3.74120000    2.74710000    2.72300000  -0.02170000  -0.00760000 190.28730000 0.11220000    28.24530000    28.66750000 
