# LAS WORX (tm) v19.05.17 Header Hash (-8291391322489380521) Data Hash (-686710286087721855) DO NOT REMOVE THIS LINE
~VERSION INFORMATION SECTION
VERS. 2.00 : CWLS LOG ASCII STANDARD - VERSION 2.000000
WRAP. NO   : ONE LINE PER DEPTH STEP
#
#MNEM UNIT                   VALUE/NAME                            DESCRIPTION      
#---- ---- -----------------------------------------------   -----------------------
~WELL INFORMATION SECTION
STRT.F                                           875.0000 : START DEPTH
STOP.F                                          4970.0000 : STOP DEPTH
STEP.F                                             0.5000 : STEP
NULL.                                            -999.250 : NULL VALUE
API .                                      34157253340000 : API NUMBER
CNTY.                                          TUSCARAWAS : COUNTY
COMP.                  OHIO DIVISION OF GEOLOGICAL SURVEY : COMPANY
CTRY.                                                 USA : COUNTRY
DATE.                                            6/9/2007 : DATE
EPD .FT                                               927 : ELEVATION OF REF. DATUM
FILE.NM                         34157253340000_GND_PE_RES : FILE NAME
FLD .                                               SALEM : FIELD
GDAT.                                               NAD83 : GEODETIC DATUM
LAT .                                           40.353705 : LATITUDE
LOC .                             4360'NL & 70'EL OF TWP. : LOCATION
LON .                                          -81.489962 : LONGITUDE
SRVC.                                        SCHLUMBERGER : SERVICE COMPANY
STAT.                                                  OH : STATE
TLD .                                                4970 : TOTAL LOG DEPTH
TWP .                                               SALEM : TOWNSHIP
UWI .                                      34157253340000 : UWI NUMBER
WELL.      BELDEN BRICK UNIT (OHIO GEOLOGICAL SURVEY CO2) : WELL
WSTA.                                           PRODUCING : WELL STATUS
#
#MNEM UNIT API CODES                             DESCRIPTION                          
#---- ---- ---------   ---------------------------------------------------------------
~CURVE INFORMATION SECTION
DEPT.F              : DEPTH IN FEET
TENS.LBF            : CABLE TENSION {F13.4}
HTEM.DEGF           : HTC TEMPERATURE {F13.4}
GR  .GAPI           : GAMMA-RAY {F13.4}
NPHI.CFCF           : THERMAL NEUTRON POROSITY (RATIO METHOD) {F13.4}
HCAL.IN             : HRCC CAL. CALIPER {F13.4}
HDRA.G/C3           : HRDD DENSITY CORRECTION {F13.4}
PEFZ.B/E            : HRDD STANDARD RESOLUTION FORMATION PHOTOELECTRIC FACTOR {F13.4}
PEF8.B/E            : HRDD HIGH RESOLUTION FORMATION PHOTOELECTRIC FACTOR {F13.4}
RHOZ.G/C3           : HRDD STANDARD RESOLUTION FORMATION DENSITY {F13.4}
RHO8.G/C3           : HRDD HIGH RESOLUTION FORMATION DENSITY {F13.4}
DPHZ.CFCF           : HRDD STANDARD RESOLUTION DENSITY POROSITY {F13.4}
DPH8.CFCF           : HRDD HIGH RESOLUTION DENSITY POROSITY {F13.4}
HGR .GAPI           : HIRES GAMMA-RAY {F13.4}
HRM .OHMM           : HALS MUD RESISTIVITY {F13.4}
HLLS.OHMM           : HALS LATEROLOG SHALLOW RESISTIVITY {F13.4}
HLLD.OHMM           : HALS LATEROLOG DEEP RESISTIVITY {F13.4}
#
#    MNEM      UNIT  VALUE/NAME           DESCRIPTION       
#------------- ---- -------------   ------------------------
~PARAMETERS INFORMATION SECTION
APD          .F        12.000000 : ABOVE PERMANENT DATUM
EGROUND LEVEL.FT        917.0000 : 
EPD          .F       917.000000 : ELEVATION OF PERM. DATUM
LMF          .     KELLY BUSHING : LOG MEASURED FROM
PDAT         .      GROUND LEVEL : PERMANENT DATUM
RUN          .               ONE : RUN NUMBER
TD           .FT       4970.0000 : TOTAL DEPTH
WSTA         .               LOC : 
#
~OTHER INFORMATION SECTION
<DESCLOGPLOTSTART> NEURALOG PLOT DEFINITION
PLOTDEFVERSION: 3
LASFILE: S:\IMAGES\GEOPHYSRASTERLOGS\HOLDING_LAS\!WORKING FOLDER!\6_INCH_PEX_HA
DEPTHSCALE: 239.999996
RESOLUTION: 200
DEPTHLABELFREQ: 100.000000
HEAVYGRIDFREQ: 100.000000
MEDIUMGRIDFREQ: 50.000000
LIGHTGRIDFREQ: 10.000000
STARTTRACK:
LEFTX: 0.500000 INCH
RIGHTX: 3.000000 INCH
SCALETYPE: LINEAR
NUMCHARTDIVISIONS: 10
CURVE: GR 0.000000 150.000000 (255,0,0) LONG_DASH 2 Y
BACKUP: 150.000000 300.000000 (255,0,0) SOLID 2
BACKUP: -150.000000 0.000000 (255,0,0) SOLID 2
CURVE: HDRA -0.071900 2.642800 (255,131,0) SOLID 2 N
CURVE: PEFZ 2.124900 10.000000 (0,0,0) SOLID 2 N
CURVE: PEF8 1.984700 10.000000 (0,0,255) SOLID 2 N
CURVE: RHOZ 1.680700 4.434100 (0,131,131) SOLID 2 N
CURVE: RHO8 1.332600 4.628800 (255,0,255) SOLID 2 N
CURVE: DPHZ -1.008300 585.941500 (255,0,0) SOLID 2 N
CURVE: DPH8 -1.122100 585.941500 (255,131,0) SOLID 2 N
CURVE: HGR 11.070400 461.898600 (0,0,0) SOLID 2 N
CURVE: NPHI 0.200000 200.000000 (131,65,65) SOLID 2 Y
BACKUP: 200.000000 200000.000000 (131,65,65) SOLID 2
BACKUP: 0.000200 0.200000 (131,65,65) SOLID 2
ENDTRACK:
STARTTRACK:
LEFTX: 3.750000 INCH
RIGHTX: 8.750000 INCH
SCALETYPE: LOG
NUMCYCLES: 3
STARTCYCLE: 2
CURVE: HRM 0.200000 200.000000 (0,0,255) SOLID 2 N
CURVE: HLLS 0.200000 200.000000 (0,131,131) SOLID 2 N
CURVE: HLLD 0.200000 200.000000 (255,0,255) SOLID 2 N
ENDTRACK:
STARTTRACK:
LEFTX: 8.750000 INCH
RIGHTX: 11.250000 INCH
SCALETYPE: LINEAR
NUMCHARTDIVISIONS: 10
CURVE: HCAL 2.230300 15.927300 (255,0,0) SOLID 2 N
CURVE: TENS 864.000000 1950.000000 (0,131,131) SOLID 2 N
CURVE: HTEM 79.620100 103.334500 (255,0,255) SOLID 2 N
ENDTRACK:
<DESCLOGPLOTEND>
<DEPTHTRACK TYPE='REFERENCE' TRACK='1' LABEL='0' COLOR='0' HOR='0' />
<REFERENCE FONT='-96,0,-900,0,400,0,570491395,ARIAL NARROW' />
#
#  DEPT        TENS          HTEM          GR         NPHI        HCAL         HDRA          PEFZ          PEF8          RHOZ          RHO8          DPHZ         DPH8         HGR         HRM          HLLS           HLLD      
#--------- ------------- ------------ ------------ ----------- ----------- ------------- ------------- ------------- ------------- ------------- ------------ ------------ ------------ ---------- -------------- -------------- 
~ASCII LOG DATA
# ...
4421.0000 1727.00000000 102.61590000  28.64600000  0.07350000 11.09090000    0.03560000    3.13730000    3.03650000    2.79850000    2.80610000   0.01720000   0.01310000  27.43900000 0.11320000   100.11140000   138.88510000 
4421.5000 1633.00000000 102.79550000  32.18040000  0.05720000 11.13940000    0.04920000    3.18580000    3.21140000    2.83030000    2.82500000  -0.00020000   0.00270000  32.60370000 0.11330000   111.36740000   183.38610000 
4422.0000 1755.00000000 102.97520000  33.77960000  0.04500000 11.16360000    0.04400000    3.18710000    3.24860000    2.84240000    2.84420000  -0.00680000  -0.00770000  36.10390000 0.11330000   161.36440000   646.70060000 
4422.5000 1742.00000000 102.97520000  33.37060000  0.03460000 11.20000000    0.03850000    3.15780000    3.19120000    2.85030000    2.83960000  -0.01110000  -0.00530000  32.24060000 0.11330000   163.72400000   702.48640000 
4423.0000 1652.00000000 102.61590000  30.79850000  0.03250000 11.20000000    0.02430000    3.11800000    2.98920000    2.83260000    2.83330000  -0.00140000  -0.00180000  31.77140000 0.11320000   178.85090000   462.34560000 
4423.5000 1749.00000000 102.61590000  30.48290000  0.03180000 11.21620000    0.02620000    3.12130000    3.09660000    2.82290000    2.84440000   0.00390000  -0.00790000  28.38520000 0.11320000   158.81400000   754.01480000 
4424.0000 1700.00000000 102.79550000  28.87830000  0.04140000 11.15150000    0.02530000    3.14270000    3.23740000    2.81200000    2.80870000   0.00980000   0.01160000  31.29010000 0.11330000   159.96040000   513.26670000 
4424.5000 1669.00000000 102.97520000  28.71790000  0.04160000 11.14340000    0.03360000    3.16950000    3.14120000    2.83090000    2.82850000  -0.00050000   0.00080000  26.95760000 0.11330000   144.92820000   388.13600000 
4425.0000 1768.00000000 102.97520000  27.43420000  0.04720000 11.17580000    0.03570000    3.16760000    3.15910000    2.84630000    2.85900000  -0.00890000  -0.01590000  27.90380000 0.11340000   156.52120000   594.97750000 
4425.5000 1676.00000000 102.61590000  25.34480000  0.06770000 11.20000000    0.02810000    3.11670000    3.11390000    2.83000000    2.81250000   0.00000000   0.00950000  27.43900000 0.11320000   137.80570000   390.31190000 
4426.0000 1697.00000000 102.97520000  24.46420000  0.09340000 11.17580000    0.01990000    3.06120000    3.05240000    2.79220000    2.77540000   0.02070000   0.02990000  20.68660000 0.11320000   125.59470000   271.73460000 
4426.5000 1775.00000000 102.97520000  21.73630000  0.10680000 11.26060000    0.01020000    3.01190000    2.99080000    2.74900000    2.73900000   0.04430000   0.04970000  25.74200000 0.11320000    83.70620000   101.01440000 
4427.0000 1647.00000000 102.79550000  22.38160000  0.11570000 11.41820000    0.00630000    2.98330000    3.03970000    2.72850000    2.71100000   0.05550000   0.06500000  19.13310000 0.11320000    83.02300000   107.61860000 
4427.5000 1709.00000000 102.79550000  22.46030000  0.11730000 11.15150000    0.00830000    2.98900000    2.91530000    2.73620000    2.72830000   0.05120000   0.05560000  22.62510000 0.11320000    82.89220000   103.16230000 
4428.0000 1751.00000000 102.97520000  25.99040000  0.11840000 11.18380000    0.01640000    3.00730000    3.00790000    2.76020000    2.79770000   0.03810000   0.01760000  25.49980000 0.11320000    90.15060000   129.34290000 
4428.5000 1641.00000000 102.97520000  26.62820000  0.09560000 11.15150000    0.03580000    3.08080000    3.14690000    2.79240000    2.82930000   0.02050000   0.00040000  29.84590000 0.11320000    90.99940000   121.50690000 
4429.0000 1741.00000000 102.61590000  25.18830000  0.07750000 11.15960000    0.05870000    3.15130000    2.97850000    2.80510000    2.82850000   0.01360000   0.00080000  24.54060000 0.11320000   100.09290000   154.00250000 
4429.5000 1724.00000000 102.61590000  23.58370000  0.08050000 11.20810000    0.07890000    3.21430000    3.26530000    2.81350000    2.78630000   0.00900000   0.02390000  21.18100000 0.11330000   107.13640000   180.68730000 
4430.0000 1643.00000000 102.97520000  24.38560000  0.10860000 11.22420000    0.07360000    3.21160000    3.27290000    2.79070000    2.76260000   0.02150000   0.03680000  25.03210000 0.11330000   106.35430000   150.24560000 
4430.5000 1759.00000000 102.97520000  23.10190000  0.13890000 11.21620000    0.04630000    3.16720000    3.21480000    2.75870000    2.76150000   0.03890000   0.03740000  26.94680000 0.11330000    83.30250000   102.41990000 
4431.0000 1690.00000000 102.61590000  21.97510000  0.13680000 11.24850000    0.01630000    3.10860000    3.09480000    2.73640000    2.74900000   0.05110000   0.04430000  17.32990000 0.11330000    83.25700000   102.22080000 
4431.5000 1643.00000000 102.61590000  21.81910000  0.11550000 11.17580000    0.00480000    3.06970000    3.05000000    2.75360000    2.77460000   0.04180000   0.03030000  21.65160000 0.11330000    92.54630000   134.20330000 
4432.0000 1760.00000000 102.97520000  24.38230000  0.08890000 11.13940000    0.00500000    3.06130000    3.08090000    2.77460000    2.80020000   0.03030000   0.01630000  26.47620000 0.11330000   110.85720000   204.24310000 
4432.5000 1685.00000000 102.97520000  23.26270000  0.07660000 11.15150000    0.00890000    3.08080000    2.99570000    2.78960000    2.78740000   0.02210000   0.02330000  25.02270000 0.11380000    97.06290000   139.52300000 
4433.0000 1663.00000000 102.61590000  25.18820000  0.06280000 11.21210000    0.01560000    3.12200000    3.13820000    2.81200000    2.81780000   0.00980000   0.00670000  18.29270000 0.11380000   104.65140000   149.58720000 
4433.5000 1771.00000000 102.61590000  28.07510000  0.05380000 11.17580000    0.02450000    3.13860000    3.19990000    2.84830000    2.83010000  -0.01000000  -0.00010000  32.25280000 0.11390000   120.49330000   241.58370000 
4434.0000 1669.00000000 102.97520000  31.77400000  0.04410000 11.17580000    0.03080000    3.12370000    3.12960000    2.86080000    2.87490000  -0.01680000  -0.02450000  33.27530000 0.11390000   140.02120000   389.31310000 
4434.5000 1661.00000000 102.79550000  29.20660000  0.04570000 11.15960000    0.04010000    3.09450000    3.06810000    2.85230000    2.90180000  -0.01220000  -0.03930000  29.72050000 0.11390000   151.11170000   494.49410000 
4435.0000 1762.00000000 102.61590000  26.31980000  0.06040000 11.16770000    0.05680000    3.07840000    3.10180000    2.84380000    2.84660000  -0.00760000  -0.00910000  24.55070000 0.11390000   140.16500000   371.69840000 
4435.5000 1650.00000000 102.61590000  24.06500000  0.07890000 11.10300000    0.06580000    3.07190000    3.02570000    2.83650000    2.76890000  -0.00350000   0.03340000  25.01910000 0.11390000   118.22540000   204.38830000 
4436.0000 1706.00000000 102.97520000  24.06500000  0.08270000 11.10300000    0.06190000    3.07250000    3.03820000    2.82600000    2.80050000   0.00220000   0.01610000  22.62510000 0.11390000   103.21800000   150.36990000 
4436.5000 1721.00000000 102.61590000  23.58380000  0.07060000 11.20000000    0.05370000    3.08940000    3.06320000    2.81180000    2.83600000   0.00990000  -0.00330000  24.55070000 0.11390000    99.90390000   144.19580000 
4437.0000 1672.00000000 102.61590000  26.95350000  0.06710000 11.19190000    0.05460000    3.11730000    3.21600000    2.81050000    2.86490000   0.01070000  -0.01910000  23.57930000 0.11390000   101.04550000   153.49020000 
4437.5000 1720.00000000 102.97520000  27.91170000  0.08800000 11.21210000    0.06820000    3.14360000    3.24890000    2.81430000    2.84280000   0.00860000  -0.00700000  32.73420000 0.11390000   126.29210000   317.64940000 
4438.0000 1694.00000000 102.79550000  26.95290000  0.11990000 11.20000000    0.07290000    3.15110000    3.06890000    2.80170000    2.76460000   0.01550000   0.03570000  27.42600000 0.11390000   115.27510000   200.63970000 
4438.5000 1684.00000000 102.61590000  23.41910000  0.12280000 11.20000000    0.07320000    3.15050000    3.12550000    2.80490000    2.72840000   0.01370000   0.05550000  20.69960000 0.11390000   110.74430000   165.06350000 
