# LAS WORX (tm) v19.05.17 Header Hash (-8291391322489380521) Data Hash (-686710286087721855) DO NOT REMOVE THIS LINE
~VERSION INFORMATION SECTION
VERS. 2.00 : CWLS LOG ASCII STANDARD - VERSION 2.000000
WRAP. NO   : ONE LINE PER DEPTH STEP
#
#MNEM UNIT                   VALUE/NAME                            DESCRIPTION      
#---- ---- -----------------------------------------------   -----------------------
~WELL INFORMATION SECTION
STRT.F                                           875.0000 : START DEPTH
STOP.F                                          4970.0000 : STOP DEPTH
STEP.F                                             0.5000 : STEP
NULL.                                            -999.250 : NULL VALUE
API .                                      34157253340000 : API NUMBER
CNTY.                                          TUSCARAWAS : COUNTY
COMP.                  OHIO DIVISION OF GEOLOGICAL SURVEY : COMPANY
CTRY.                                                 USA : COUNTRY
DATE.                                            6/9/2007 : DATE
EPD .FT                                               927 : ELEVATION OF REF. DATUM
FILE.NM                         34157253340000_GND_PE_RES : FILE NAME
FLD .                                               SALEM : FIELD
GDAT.                                               NAD83 : GEODETIC DATUM
LAT .                                           40.353705 : LATITUDE
LOC .                             4360'NL & 70'EL OF TWP. : LOCATION
LON .                                          -81.489962 : LONGITUDE
SRVC.                                        SCHLUMBERGER : SERVICE COMPANY
STAT.                                                  OH : STATE
TLD .                                                4970 : TOTAL LOG DEPTH
TWP .                                               SALEM : TOWNSHIP
UWI .                                      34157253340000 : UWI NUMBER
WELL.      BELDEN BRICK UNIT (OHIO GEOLOGICAL SURVEY CO2) : WELL
WSTA.                                           PRODUCING : WELL STATUS
#
#MNEM UNIT API CODES                             DESCRIPTION                          
#---- ---- ---------   ---------------------------------------------------------------
~CURVE INFORMATION SECTION
DEPT.F              : DEPTH IN FEET
TENS.LBF            : CABLE TENSION {F13.4}
HTEM.DEGF           : HTC TEMPERATURE {F13.4}
GR  .GAPI           : GAMMA-RAY {F13.4}
NPHI.CFCF           : THERMAL NEUTRON POROSITY (RATIO METHOD) {F13.4}
HCAL.IN             : HRCC CAL. CALIPER {F13.4}
HDRA.G/C3           : HRDD DENSITY CORRECTION {F13.4}
PEFZ.B/E            : HRDD STANDARD RESOLUTION FORMATION PHOTOELECTRIC FACTOR {F13.4}
PEF8.B/E            : HRDD HIGH RESOLUTION FORMATION PHOTOELECTRIC FACTOR {F13.4}
RHOZ.G/C3           : HRDD STANDARD RESOLUTION FORMATION DENSITY {F13.4}
RHO8.G/C3           : HRDD HIGH RESOLUTION FORMATION DENSITY {F13.4}
DPHZ.CFCF           : HRDD STANDARD RESOLUTION DENSITY POROSITY {F13.4}
DPH8.CFCF           : HRDD HIGH RESOLUTION DENSITY POROSITY {F13.4}
HGR .GAPI           : HIRES GAMMA-RAY {F13.4}
HRM .OHMM           : HALS MUD RESISTIVITY {F13.4}
HLLS.OHMM           : HALS LATEROLOG SHALLOW RESISTIVITY {F13.4}
HLLD.OHMM           : HALS LATEROLOG DEEP RESISTIVITY {F13.4}
#
#    MNEM      UNIT  VALUE/NAME           DESCRIPTION       
#------------- ---- -------------   ------------------------
~PARAMETERS INFORMATION SECTION
APD          .F        12.000000 : ABOVE PERMANENT DATUM
EGROUND LEVEL.FT        917.0000 : 
EPD          .F       917.000000 : ELEVATION OF PERM. DATUM
LMF          .     KELLY BUSHING : LOG MEASURED FROM
PDAT         .      GROUND LEVEL : PERMANENT DATUM
RUN          .               ONE : RUN NUMBER
TD           .FT       4970.0000 : TOTAL DEPTH
WSTA         .               LOC : 
#
~OTHER INFORMATION SECTION
<DESCLOGPLOTSTART> NEURALOG PLOT DEFINITION
PLOTDEFVERSION: 3
LASFILE: S:\IMAGES\GEOPHYSRASTERLOGS\HOLDING_LAS\!WORKING FOLDER!\6_INCH_PEX_HA
DEPTHSCALE: 239.999996
RESOLUTION: 200
DEPTHLABELFREQ: 100.000000
HEAVYGRIDFREQ: 100.000000
MEDIUMGRIDFREQ: 50.000000
LIGHTGRIDFREQ: 10.000000
STARTTRACK:
LEFTX: 0.500000 INCH
RIGHTX: 3.000000 INCH
SCALETYPE: LINEAR
NUMCHARTDIVISIONS: 10
CURVE: GR 0.000000 150.000000 (255,0,0) LONG_DASH 2 Y
BACKUP: 150.000000 300.000000 (255,0,0) SOLID 2
BACKUP: -150.000000 0.000000 (255,0,0) SOLID 2
CURVE: HDRA -0.071900 2.642800 (255,131,0) SOLID 2 N
CURVE: PEFZ 2.124900 10.000000 (0,0,0) SOLID 2 N
CURVE: PEF8 1.984700 10.000000 (0,0,255) SOLID 2 N
CURVE: RHOZ 1.680700 4.434100 (0,131,131) SOLID 2 N
CURVE: RHO8 1.332600 4.628800 (255,0,255) SOLID 2 N
CURVE: DPHZ -1.008300 585.941500 (255,0,0) SOLID 2 N
CURVE: DPH8 -1.122100 585.941500 (255,131,0) SOLID 2 N
CURVE: HGR 11.070400 461.898600 (0,0,0) SOLID 2 N
CURVE: NPHI 0.200000 200.000000 (131,65,65) SOLID 2 Y
BACKUP: 200.000000 200000.000000 (131,65,65) SOLID 2
BACKUP: 0.000200 0.200000 (131,65,65) SOLID 2
ENDTRACK:
STARTTRACK:
LEFTX: 3.750000 INCH
RIGHTX: 8.750000 INCH
SCALETYPE: LOG
NUMCYCLES: 3
STARTCYCLE: 2
CURVE: HRM 0.200000 200.000000 (0,0,255) SOLID 2 N
CURVE: HLLS 0.200000 200.000000 (0,131,131) SOLID 2 N
CURVE: HLLD 0.200000 200.000000 (255,0,255) SOLID 2 N
ENDTRACK:
STARTTRACK:
LEFTX: 8.750000 INCH
RIGHTX: 11.250000 INCH
SCALETYPE: LINEAR
NUMCHARTDIVISIONS: 10
CURVE: HCAL 2.230300 15.927300 (255,0,0) SOLID 2 N
CURVE: TENS 864.000000 1950.000000 (0,131,131) SOLID 2 N
CURVE: HTEM 79.620100 103.334500 (255,0,255) SOLID 2 N
ENDTRACK:
<DESCLOGPLOTEND>
<DEPTHTRACK TYPE='REFERENCE' TRACK='1' LABEL='0' COLOR='0' HOR='0' />
<REFERENCE FONT='-96,0,-900,0,400,0,570491395,ARIAL NARROW' />
#
#  DEPT        TENS          HTEM          GR         NPHI        HCAL         HDRA          PEFZ          PEF8          RHOZ          RHO8          DPHZ         DPH8         HGR         HRM          HLLS           HLLD      
#--------- ------------- ------------ ------------ ----------- ----------- ------------- ------------- ------------- ------------- ------------- ------------ ------------ ------------ ---------- -------------- -------------- 
~ASCII LOG DATA
# ...
3053.0000 1422.00000000  97.94490000 238.02860000  0.24800000 11.20000000    0.01030000    3.01680000    2.95780000    2.57390000    2.58490000   0.07960000   0.07320000 249.50120000 0.10650000   105.52330000   184.00330000 
3053.5000 1386.00000000  98.66350000 227.02120000  0.24960000 11.20000000    0.01400000    2.96520000    3.10780000    2.56350000    2.58400000   0.08560000   0.07370000 213.36770000 0.10650000   101.44570000   165.69280000 
3054.0000 1426.00000000  97.94490000 243.20010000  0.28170000 11.20000000    0.01130000    2.95400000    2.74300000    2.51980000    2.51870000   0.11120000   0.11190000 215.55160000 0.10650000   100.59230000   149.98900000 
3054.5000 1452.00000000  98.30420000 280.72780000  0.30440000 11.24850000    0.00270000    2.97750000    2.94800000    2.47370000    2.40820000   0.13820000   0.17650000 299.73280000 0.10650000   126.56860000   425.00850000 
3055.0000 1439.00000000  97.94490000 290.79030000  0.28720000 11.24850000   -0.00320000    3.00740000    2.97570000    2.47800000    2.42170000   0.13570000   0.16860000 326.69290000 0.10650000   147.78640000   838.46780000 
3055.5000 1399.00000000  98.66350000 268.12230000  0.26910000 11.27270000   -0.00090000    3.05240000    2.90900000    2.53330000    2.61510000   0.10330000   0.05550000 245.05510000 0.10650000   129.29010000   385.44280000 
3056.0000 1404.00000000  98.48380000 249.07700000  0.24380000 11.24850000    0.00500000    3.11480000    3.17080000    2.58160000    2.64900000   0.07510000   0.03570000 231.09790000 0.10650000   108.50770000   205.28450000 
3056.5000 1475.00000000  98.30420000 268.30940000  0.27720000 11.22420000    0.00400000    3.16360000    3.37930000    2.56400000    2.56800000   0.08540000   0.08300000 270.03820000 0.10650000   106.58130000   195.46540000 
3057.0000 1459.00000000  98.30420000 302.14190000  0.31030000 11.20000000    0.00340000    3.11680000    3.13090000    2.53080000    2.49190000   0.10480000   0.12760000 304.08620000 0.10650000   120.99940000   309.82170000 
3057.5000 1390.00000000  98.30420000 317.09460000  0.32360000 11.20000000   -0.00020000    3.04750000    2.82590000    2.50240000    2.49150000   0.12140000   0.12780000 332.59650000 0.10650000   144.91230000   767.85160000 
3058.0000 1394.00000000  98.66350000 302.46960000  0.33150000 11.17580000    0.00160000    3.00710000    3.07910000    2.51470000    2.54350000   0.11420000   0.09730000 315.39150000 0.10650000   135.90150000   480.68780000 
3058.5000 1448.00000000  98.30420000 279.91130000  0.32360000 11.22420000    0.00300000    3.04360000    3.09840000    2.51760000    2.51830000   0.11250000   0.11210000 259.43770000 0.10650000   130.32600000   377.36380000 
3059.0000 1466.00000000  98.30420000 265.00330000  0.33060000 11.24850000    0.00920000    3.08290000    3.04430000    2.51030000    2.52600000   0.11680000   0.10760000 267.43320000 0.10650000   119.99610000   296.11430000 
3059.5000 1446.00000000  98.48380000 258.11070000  0.33910000 11.24850000    0.02430000    3.16460000    3.06640000    2.52590000    2.51410000   0.10760000   0.11460000 269.35830000 0.10650000   110.52260000   305.52770000 
3060.0000 1424.00000000  98.48380000 258.02080000  0.35800000 11.24850000    0.03230000    3.26640000    3.14730000    2.53530000    2.56820000   0.10220000   0.08300000 238.70260000 0.10660000    88.83680000   130.21520000 
3060.5000 1444.00000000  98.30420000 255.30620000  0.38470000 11.53940000    0.02930000    3.36700000    3.52840000    2.55290000    2.52740000   0.09180000   0.10680000 265.31120000 0.10660000    89.30960000   141.72570000 
3061.0000 1475.00000000  98.48380000 263.97370000  0.36840000 11.27270000    0.01160000    3.44800000    3.47170000    2.54380000    2.50920000   0.09720000   0.11740000 261.45570000 0.10660000    90.14990000   139.01700000 
3061.5000 1419.00000000  98.30420000 254.86590000  0.31970000 11.28480000    0.00120000    3.49980000    3.35720000    2.56700000    2.59570000   0.08360000   0.06680000 265.24270000 0.10660000   102.03110000   250.81150000 
3062.0000 1410.00000000  98.30420000 253.00500000  0.27320000 11.27270000   -0.00030000    3.50250000    3.54030000    2.60440000    2.65920000   0.06170000   0.02970000 237.32240000 0.10660000    89.52500000   143.58510000 
3062.5000 1470.00000000  98.30420000 250.27720000  0.28140000 11.29700000   -0.00030000    3.49980000    3.55880000    2.61150000    2.64180000   0.05760000   0.03990000 256.46480000 0.10660000    79.61310000   106.90820000 
3063.0000 1469.00000000  98.48380000 262.90790000  0.32200000 11.29700000   -0.00080000    3.49290000    3.41650000    2.59770000    2.58670000   0.06570000   0.07210000 257.05920000 0.10660000    76.33910000    99.94550000 
3063.5000 1419.00000000  98.30420000 272.09680000  0.32860000 11.29700000   -0.00130000    3.49160000    3.30370000    2.59030000    2.55630000   0.07000000   0.08990000 275.22090000 0.10660000    86.71880000   199.44920000 
3064.0000 1400.00000000  98.30420000 266.28040000  0.30780000 11.29700000   -0.00010000    3.54100000    3.50770000    2.61010000    2.64930000   0.05840000   0.03550000 284.01670000 0.10660000    38.06250000    31.91470000 
3064.5000 1463.00000000  98.48380000 255.73570000  0.25850000 11.29700000    0.00100000    3.61320000    3.73820000    2.63350000    2.65970000   0.04480000   0.02940000 239.61560000 0.10660000    31.50540000    25.48700000 
3065.0000 1470.00000000  98.30420000 244.34290000  0.25640000 11.29700000   -0.00080000    3.69110000    3.84210000    2.63460000    2.62430000   0.04410000   0.05010000 243.58040000 0.10660000    26.88770000    19.81410000 
3065.5000 1410.00000000  98.48380000 256.05080000  0.28440000 11.29700000   -0.00170000    3.65880000    3.56650000    2.63520000    2.62380000   0.04370000   0.05040000 249.83840000 0.10660000    37.97260000    35.18180000 
3066.0000 1395.00000000  98.48380000 261.18550000  0.29510000 11.29700000   -0.00350000    3.61260000    3.58550000    2.63140000    2.64550000   0.04600000   0.03770000 274.73730000 0.10660000    42.95030000    38.59330000 
3066.5000 1471.00000000  98.30420000 257.29490000  0.30170000 11.29700000   -0.00530000    3.57490000    3.50770000    2.62600000    2.65150000   0.04910000   0.03420000 258.98470000 0.10660000    50.41700000    50.37730000 
3067.0000 1498.00000000  98.48380000 244.98500000  0.29690000 11.30910000   -0.00410000    3.47740000    3.36300000    2.62730000    2.65140000   0.04830000   0.03430000 238.16930000 0.10660000    47.22650000    43.20180000 
3067.5000 1410.00000000  98.48380000 247.18730000  0.31210000 11.32120000   -0.00160000    3.36810000    3.39790000    2.62030000    2.61710000   0.05250000   0.05430000 237.80380000 0.10660000    48.56510000    44.41750000 
3068.0000 1387.00000000  98.30420000 260.54530000  0.34730000 11.32120000    0.00090000    3.30740000    3.31520000    2.59390000    2.60230000   0.06790000   0.06300000 265.58740000 0.10660000    49.81330000    47.37930000 
3068.5000 1444.00000000  98.48380000 283.00990000  0.35960000 11.29700000    0.00060000    3.37280000    3.34730000    2.53920000    2.52180000   0.09990000   0.11000000 278.24010000 0.10670000    72.91720000   923.96750000 
3069.0000 1491.00000000  98.48380000 300.33110000  0.40790000 11.26060000    0.00160000    3.48810000    3.40030000    2.49500000    2.48460000   0.12570000   0.13180000 305.19770000 0.10670000    81.88010000   126.59230000 
3069.5000 1468.00000000  98.48380000 306.58910000  0.40890000 11.27270000    0.00380000    3.59340000    3.70550000    2.48760000    2.48440000   0.13010000   0.13200000 317.55330000 0.10670000   110.35540000   323.62830000 
3070.0000 1401.00000000  98.30420000 296.75500000  0.38950000 11.27270000    0.00480000    3.63930000    3.81230000    2.51460000    2.47280000   0.11430000   0.13870000 297.01420000 0.10670000   116.22520000   303.88250000 
3070.5000 1411.00000000  98.48380000 277.55250000  0.33900000 11.27270000    0.00580000    3.59130000    3.75050000    2.56650000    2.60430000   0.08390000   0.06180000 275.69510000 0.10670000   151.21430000 60000.00000000 
