# LAS WORX (tm) v19.05.17 Header Hash (-8291391322489380521) Data Hash (-686710286087721855) DO NOT REMOVE THIS LINE
~VERSION INFORMATION SECTION
VERS. 2.00 : CWLS LOG ASCII STANDARD - VERSION 2.000000
WRAP. NO   : ONE LINE PER DEPTH STEP
#
#MNEM UNIT                   VALUE/NAME                            DESCRIPTION      
#---- ---- -----------------------------------------------   -----------------------
~WELL INFORMATION SECTION
STRT.F                                           875.0000 : START DEPTH
STOP.F                                          4970.0000 : STOP DEPTH
STEP.F                                             0.5000 : STEP
NULL.                                            -999.250 : NULL VALUE
API .                                      34157253340000 : API NUMBER
CNTY.                                          TUSCARAWAS : COUNTY
COMP.                  OHIO DIVISION OF GEOLOGICAL SURVEY : COMPANY
CTRY.                                                 USA : COUNTRY
DATE.                                            6/9/2007 : DATE
EPD .FT                                               927 : ELEVATION OF REF. DATUM
FILE.NM                         34157253340000_GND_PE_RES : FILE NAME
FLD .                                               SALEM : FIELD
GDAT.                                               NAD83 : GEODETIC DATUM
LAT .                                           40.353705 : LATITUDE
LOC .                             4360'NL & 70'EL OF TWP. : LOCATION
LON .                                          -81.489962 : LONGITUDE
SRVC.                                        SCHLUMBERGER : SERVICE COMPANY
STAT.                                                  OH : STATE
TLD .                                                4970 : TOTAL LOG DEPTH
TWP .                                               SALEM : TOWNSHIP
UWI .                                      34157253340000 : UWI NUMBER
WELL.      BELDEN BRICK UNIT (OHIO GEOLOGICAL SURVEY CO2) : WELL
WSTA.                                           PRODUCING : WELL STATUS
#
#MNEM UNIT API CODES                             DESCRIPTION                          
#---- ---- ---------   ---------------------------------------------------------------
~CURVE INFORMATION SECTION
DEPT.F              : DEPTH IN FEET
TENS.LBF            : CABLE TENSION {F13.4}
HTEM.DEGF           : HTC TEMPERATURE {F13.4}
GR  .GAPI           : GAMMA-RAY {F13.4}
NPHI.CFCF           : THERMAL NEUTRON POROSITY (RATIO METHOD) {F13.4}
HCAL.IN             : HRCC CAL. CALIPER {F13.4}
HDRA.G/C3           : HRDD DENSITY CORRECTION {F13.4}
PEFZ.B/E            : HRDD STANDARD RESOLUTION FORMATION PHOTOELECTRIC FACTOR {F13.4}
PEF8.B/E            : HRDD HIGH RESOLUTION FORMATION PHOTOELECTRIC FACTOR {F13.4}
RHOZ.G/C3           : HRDD STANDARD RESOLUTION FORMATION DENSITY {F13.4}
RHO8.G/C3           : HRDD HIGH RESOLUTION FORMATION DENSITY {F13.4}
DPHZ.CFCF           : HRDD STANDARD RESOLUTION DENSITY POROSITY {F13.4}
DPH8.CFCF           : HRDD HIGH RESOLUTION DENSITY POROSITY {F13.4}
HGR .GAPI           : HIRES GAMMA-RAY {F13.4}
HRM .OHMM           : HALS MUD RESISTIVITY {F13.4}
HLLS.OHMM           : HALS LATEROLOG SHALLOW RESISTIVITY {F13.4}
HLLD.OHMM           : HALS LATEROLOG DEEP RESISTIVITY {F13.4}
#
#    MNEM      UNIT  VALUE/NAME           DESCRIPTION       
#------------- ---- -------------   ------------------------
~PARAMETERS INFORMATION SECTION
APD          .F        12.000000 : ABOVE PERMANENT DATUM
EGROUND LEVEL.FT        917.0000 : 
EPD          .F       917.000000 : ELEVATION OF PERM. DATUM
LMF          .     KELLY BUSHING : LOG MEASURED FROM
PDAT         .      GROUND LEVEL : PERMANENT DATUM
RUN          .               ONE : RUN NUMBER
TD           .FT       4970.0000 : TOTAL DEPTH
WSTA         .               LOC : 
#
~OTHER INFORMATION SECTION
<DESCLOGPLOTSTART> NEURALOG PLOT DEFINITION
PLOTDEFVERSION: 3
LASFILE: S:\IMAGES\GEOPHYSRASTERLOGS\HOLDING_LAS\!WORKING FOLDER!\6_INCH_PEX_HA
DEPTHSCALE: 239.999996
RESOLUTION: 200
DEPTHLABELFREQ: 100.000000
HEAVYGRIDFREQ: 100.000000
MEDIUMGRIDFREQ: 50.000000
LIGHTGRIDFREQ: 10.000000
STARTTRACK:
LEFTX: 0.500000 INCH
RIGHTX: 3.000000 INCH
SCALETYPE: LINEAR
NUMCHARTDIVISIONS: 10
CURVE: GR 0.000000 150.000000 (255,0,0) LONG_DASH 2 Y
BACKUP: 150.000000 300.000000 (255,0,0) SOLID 2
BACKUP: -150.000000 0.000000 (255,0,0) SOLID 2
CURVE: HDRA -0.071900 2.642800 (255,131,0) SOLID 2 N
CURVE: PEFZ 2.124900 10.000000 (0,0,0) SOLID 2 N
CURVE: PEF8 1.984700 10.000000 (0,0,255) SOLID 2 N
CURVE: RHOZ 1.680700 4.434100 (0,131,131) SOLID 2 N
CURVE: RHO8 1.332600 4.628800 (255,0,255) SOLID 2 N
CURVE: DPHZ -1.008300 585.941500 (255,0,0) SOLID 2 N
CURVE: DPH8 -1.122100 585.941500 (255,131,0) SOLID 2 N
CURVE: HGR 11.070400 461.898600 (0,0,0) SOLID 2 N
CURVE: NPHI 0.200000 200.000000 (131,65,65) SOLID 2 Y
BACKUP: 200.000000 200000.000000 (131,65,65) SOLID 2
BACKUP: 0.000200 0.200000 (131,65,65) SOLID 2
ENDTRACK:
STARTTRACK:
LEFTX: 3.750000 INCH
RIGHTX: 8.750000 INCH
SCALETYPE: LOG
NUMCYCLES: 3
STARTCYCLE: 2
CURVE: HRM 0.200000 200.000000 (0,0,255) SOLID 2 N
CURVE: HLLS 0.200000 200.000000 (0,131,131) SOLID 2 N
CURVE: HLLD 0.200000 200.000000 (255,0,255) SOLID 2 N
ENDTRACK:
STARTTRACK:
LEFTX: 8.750000 INCH
RIGHTX: 11.250000 INCH
SCALETYPE: LINEAR
NUMCHARTDIVISIONS: 10
CURVE: HCAL 2.230300 15.927300 (255,0,0) SOLID 2 N
CURVE: TENS 864.000000 1950.000000 (0,131,131) SOLID 2 N
CURVE: HTEM 79.620100 103.334500 (255,0,255) SOLID 2 N
ENDTRACK:
<DESCLOGPLOTEND>
<DEPTHTRACK TYPE='REFERENCE' TRACK='1' LABEL='0' COLOR='0' HOR='0' />
<REFERENCE FONT='-96,0,-900,0,400,0,570491395,ARIAL NARROW' />
#
#  DEPT        TENS          HTEM          GR         NPHI        HCAL         HDRA          PEFZ          PEF8          RHOZ          RHO8          DPHZ         DPH8         HGR         HRM          HLLS           HLLD      
#--------- ------------- ------------ ------------ ----------- ----------- ------------- ------------- ------------- ------------- ------------- ------------ ------------ ------------ ---------- -------------- -------------- 
~ASCII LOG DATA
# ...
4151.0000 1594.00000000 102.97520000  24.17320000  0.00540000 11.32120000   -0.01760000    4.80660000    4.73320000    2.93220000    2.92450000  -0.05580000  -0.05160000  19.73680000 0.10830000   133.41970000  2282.41970000 
4151.5000 1681.00000000 102.79550000  23.85240000  0.01150000 11.29700000   -0.01490000    4.57910000    4.66830000    2.92310000    2.93390000  -0.05090000  -0.05680000  23.82120000 0.10830000   129.88430000  1638.47570000 
4152.0000 1659.00000000 102.97520000  30.43130000  0.01560000 11.20000000   -0.00610000    4.24170000    4.18010000    2.90600000    2.91110000  -0.04150000  -0.04430000  27.91100000 0.10830000   124.11720000  1443.05650000 
4152.5000 1618.00000000 102.61590000  34.96970000  0.02420000 11.18790000    0.01130000    3.90560000    3.82850000    2.89770000    2.89270000  -0.03700000  -0.03420000  39.47360000 0.10830000   115.64730000   575.04640000 
4153.0000 1685.00000000 102.79550000  38.82540000  0.02410000 11.17580000    0.01130000    3.62600000    3.43450000    2.86710000    2.85280000  -0.02030000  -0.01250000  37.53010000 0.10830000   112.97320000   633.93150000 
4153.5000 1606.00000000 102.61590000  46.04610000  0.03310000 11.18790000    0.01610000    3.47770000    3.51750000    2.85830000    2.86060000  -0.01550000  -0.01670000  39.47360000 0.10830000   112.32010000   549.72770000 
4154.0000 1621.00000000 102.61590000  57.75400000  0.04950000 11.17580000    0.01770000    3.46620000    3.34620000    2.84450000    2.85180000  -0.00790000  -0.01190000  61.13590000 0.10830000    91.02920000   249.27360000 
4154.5000 1678.00000000 102.97520000  70.43050000  0.07680000 11.20000000    0.01880000    3.56060000    3.48910000    2.83550000    2.81890000  -0.00300000   0.00600000  72.64740000 0.10840000    69.43380000    91.83400000 
4155.0000 1607.00000000 102.79550000  69.60440000  0.07200000 11.20810000    0.01830000    3.77220000    3.70450000    2.83700000    2.84280000  -0.00380000  -0.00700000  77.50300000 0.10840000    57.90180000    58.03170000 
4155.5000 1672.00000000 102.97520000  59.66080000  0.06090000 11.21620000    0.02290000    4.06720000    4.09900000    2.86600000    2.88360000  -0.01970000  -0.02930000  58.63890000 0.10840000    67.24890000    71.67080000 
4156.0000 1633.00000000 102.79550000  48.74940000  0.03970000 11.22420000    0.02600000    4.30820000    4.53640000    2.88700000    2.87970000  -0.03110000  -0.02720000  42.81950000 0.10930000    87.25720000   157.90530000 
4156.5000 1613.00000000 102.79550000  52.61250000  0.05730000 11.21620000    0.01600000    4.35140000    4.48940000    2.85460000    2.85430000  -0.01350000  -0.01330000  44.76880000 0.10930000   100.46620000   508.10350000 
4157.0000 1679.00000000 102.97520000  79.25620000  0.09530000 11.21210000    0.00510000    4.32480000    3.94250000    2.80090000    2.77100000   0.01590000   0.03220000  70.24980000 0.10930000    70.29080000   100.05360000 
4157.5000 1619.00000000 102.79550000  98.65500000  0.11640000 11.22420000    0.00190000    4.34690000    4.32160000    2.78340000    2.71560000   0.02550000   0.06250000 122.75310000 0.10930000    33.42000000    25.03210000 
4158.0000 1650.00000000 102.79550000  90.00170000  0.09130000 11.27270000   -0.00050000    4.50800000    4.84210000    2.82350000    2.87920000   0.00350000  -0.02690000 102.97170000 0.10930000    28.87150000    20.66890000 
4158.5000 1677.00000000 102.61590000  60.21400000  0.03220000 11.24850000   -0.01330000    4.63500000    4.50440000    2.87360000    2.91010000  -0.02380000  -0.04380000  44.28740000 0.10940000    35.39300000    29.58590000 
4159.0000 1612.00000000 102.61590000  37.12460000  0.01350000 11.23640000   -0.02040000    4.59380000    4.88780000    2.90230000    2.91300000  -0.03950000  -0.04540000  33.20960000 0.10940000    88.24630000   272.34140000 
4159.5000 1671.00000000 102.97520000  43.53250000  0.02200000 11.24850000   -0.01070000    4.30950000    4.78770000    2.89670000    2.91050000  -0.03650000  -0.04400000  33.69700000 0.10940000   116.70710000  2085.72270000 
4160.0000 1654.00000000 102.61590000  50.05340000  0.05430000 11.20000000    0.01500000    3.88860000    3.48290000    2.88740000    2.86940000  -0.03140000  -0.02150000  63.50900000 0.10950000   111.60180000   439.13810000 
4160.5000 1633.00000000 102.61590000  54.05730000  0.06990000 11.20000000    0.03070000    3.51620000    3.27410000    2.87090000    2.86390000  -0.02240000  -0.01850000  52.95240000 0.10950000    95.50850000   186.07210000 
4161.0000 1668.00000000 102.97520000  46.04480000  0.07780000 11.20000000    0.02390000    3.29920000    3.33690000    2.84730000    2.82470000  -0.00940000   0.00290000  45.71140000 0.10950000    92.14200000   202.72580000 
4161.5000 1612.00000000 102.61590000  46.84710000  0.07240000 11.20000000    0.01330000    3.21750000    3.16800000    2.83220000    2.83160000  -0.00120000  -0.00090000  39.47360000 0.10950000    87.61770000   143.43670000 
4162.0000 1673.00000000 102.61590000  47.69660000  0.07030000 11.20000000    0.00530000    3.21810000    3.12830000    2.82540000    2.84390000   0.00250000  -0.00760000  55.35930000 0.10950000    91.75010000   172.30100000 
4162.5000 1645.00000000 102.79550000  52.83140000  0.05370000 11.20000000    0.00260000    3.33550000    3.27110000    2.81810000    2.81940000   0.00650000   0.00580000  48.34200000 0.10950000    93.64160000   179.54050000 
4163.0000 1623.00000000 102.79550000  47.85710000  0.02990000 11.18790000    0.00220000    3.58570000    3.39820000    2.82910000    2.83150000   0.00050000  -0.00080000  54.87790000 0.10960000    93.71330000   177.55450000 
4163.5000 1659.00000000 102.61590000  43.63950000  0.01300000 11.20000000    0.00750000    4.02430000    3.83050000    2.87060000    2.88160000  -0.02220000  -0.02820000  40.43630000 0.10960000    99.63770000   228.58060000 
4164.0000 1605.00000000 102.79550000  40.10940000  0.00910000 11.23640000    0.01020000    4.50620000    4.89740000    2.92430000    2.94710000  -0.05150000  -0.06400000  35.60020000 0.10960000   111.44850000   341.65890000 
4164.5000 1648.00000000 102.79550000  42.72390000  0.01580000 11.27270000    0.00020000    4.83570000    4.95950000    2.93660000    2.92800000  -0.05830000  -0.05350000  44.28740000 0.10960000   125.51730000   905.53410000 
4165.0000 1639.00000000 102.97520000  44.48810000  0.03050000 11.26460000   -0.00030000    4.87280000    5.34770000    2.92560000    2.90890000  -0.05220000  -0.04310000  48.68330000 0.10960000   120.95660000   503.55530000 
4165.5000 1610.00000000 102.61590000  45.29040000  0.04610000 11.24850000    0.00680000    4.56520000    4.61300000    2.89670000    2.87770000  -0.03640000  -0.02610000  39.53260000 0.10960000   111.97730000   304.08550000 
4166.0000 1651.00000000 102.79550000  42.50880000  0.04290000 11.24850000    0.01470000    4.13750000    3.96460000    2.86310000    2.86210000  -0.01810000  -0.01750000  46.69430000 0.10970000   117.15510000   359.67810000 
4166.5000 1627.00000000 102.97520000  46.68760000  0.04100000 11.24040000    0.00740000    3.72950000    3.35510000    2.82570000    2.81550000   0.00230000   0.00790000  39.93770000 0.10960000   117.77840000   742.32590000 
4167.0000 1643.00000000 102.61590000  51.49130000  0.04100000 11.24850000   -0.00350000    3.55300000    3.55780000    2.80020000    2.80570000   0.01630000   0.01330000  53.43370000 0.10960000   115.05450000   438.07910000 
4167.5000 1663.00000000 102.97520000  55.83040000  0.05970000 11.24850000   -0.00550000    3.62510000    3.36700000    2.80020000    2.81030000   0.01630000   0.01080000  61.10280000 0.10970000   107.26100000   292.22230000 
4168.0000 1610.00000000 102.97520000  57.42130000  0.06070000 11.20000000   -0.00580000    3.86150000    3.60430000    2.80500000    2.81790000   0.01370000   0.00660000  52.95230000 0.10970000    92.05510000   161.85550000 
4168.5000 1639.00000000 102.61590000  56.78970000  0.05850000 11.20810000   -0.00120000    4.08980000    4.44220000    2.82810000    2.87570000   0.00100000  -0.02500000  58.15750000 0.10970000    95.32170000   186.36390000 
