# LAS WORX (tm) v19.05.17 Header Hash (-8291391322489380521) Data Hash (-686710286087721855) DO NOT REMOVE THIS LINE
~VERSION INFORMATION SECTION
VERS. 2.00 : CWLS LOG ASCII STANDARD - VERSION 2.000000
WRAP. NO   : ONE LINE PER DEPTH STEP
#
#MNEM UNIT                   VALUE/NAME                            DESCRIPTION      
#---- ---- -----------------------------------------------   -----------------------
~WELL INFORMATION SECTION
STRT.F                                           875.0000 : START DEPTH
STOP.F                                          4970.0000 : STOP DEPTH
STEP.F                                             0.5000 : STEP
NULL.                                            -999.250 : NULL VALUE
API .                                      34157253340000 : API NUMBER
CNTY.                                          TUSCARAWAS : COUNTY
COMP.                  OHIO DIVISION OF GEOLOGICAL SURVEY : COMPANY
CTRY.                                                 USA : COUNTRY
DATE.                                            6/9/2007 : DATE
EPD .FT                                               927 : ELEVATION OF REF. DATUM
FILE.NM                         34157253340000_GND_PE_RES : FILE NAME
FLD .                                               SALEM : FIELD
GDAT.                                               NAD83 : GEODETIC DATUM
LAT .                                           40.353705 : LATITUDE
LOC .                             4360'NL & 70'EL OF TWP. : LOCATION
LON .                                          -81.489962 : LONGITUDE
SRVC.                                        SCHLUMBERGER : SERVICE COMPANY
STAT.                                                  OH : STATE
TLD .                                                4970 : TOTAL LOG DEPTH
TWP .                                               SALEM : TOWNSHIP
UWI .                                      34157253340000 : UWI NUMBER
WELL.      BELDEN BRICK UNIT (OHIO GEOLOGICAL SURVEY CO2) : WELL
WSTA.                                           PRODUCING : WELL STATUS
#
#MNEM UNIT API CODES                             DESCRIPTION                          
#---- ---- ---------   ---------------------------------------------------------------
~CURVE INFORMATION SECTION
DEPT.F              : DEPTH IN FEET
TENS.LBF            : CABLE TENSION {F13.4}
HTEM.DEGF           : HTC TEMPERATURE {F13.4}
GR  .GAPI           : GAMMA-RAY {F13.4}
NPHI.CFCF           : THERMAL NEUTRON POROSITY (RATIO METHOD) {F13.4}
HCAL.IN             : HRCC CAL. CALIPER {F13.4}
HDRA.G/C3           : HRDD DENSITY CORRECTION {F13.4}
PEFZ.B/E            : HRDD STANDARD RESOLUTION FORMATION PHOTOELECTRIC FACTOR {F13.4}
PEF8.B/E            : HRDD HIGH RESOLUTION FORMATION PHOTOELECTRIC FACTOR {F13.4}
RHOZ.G/C3           : HRDD STANDARD RESOLUTION FORMATION DENSITY {F13.4}
RHO8.G/C3           : HRDD HIGH RESOLUTION FORMATION DENSITY {F13.4}
DPHZ.CFCF           : HRDD STANDARD RESOLUTION DENSITY POROSITY {F13.4}
DPH8.CFCF           : HRDD HIGH RESOLUTION DENSITY POROSITY {F13.4}
HGR .GAPI           : HIRES GAMMA-RAY {F13.4}
HRM .OHMM           : HALS MUD RESISTIVITY {F13.4}
HLLS.OHMM           : HALS LATEROLOG SHALLOW RESISTIVITY {F13.4}
HLLD.OHMM           : HALS LATEROLOG DEEP RESISTIVITY {F13.4}
#
#    MNEM      UNIT  VALUE/NAME           DESCRIPTION       
#------------- ---- -------------   ------------------------
~PARAMETERS INFORMATION SECTION
APD          .F        12.000000 : ABOVE PERMANENT DATUM
EGROUND LEVEL.FT        917.0000 : 
EPD          .F       917.000000 : ELEVATION OF PERM. DATUM
LMF          .     KELLY BUSHING : LOG MEASURED FROM
PDAT         .      GROUND LEVEL : PERMANENT DATUM
RUN          .               ONE : RUN NUMBER
TD           .FT       4970.0000 : TOTAL DEPTH
WSTA         .               LOC : 
#
~OTHER INFORMATION SECTION
<DESCLOGPLOTSTART> NEURALOG PLOT DEFINITION
PLOTDEFVERSION: 3
LASFILE: S:\IMAGES\GEOPHYSRASTERLOGS\HOLDING_LAS\!WORKING FOLDER!\6_INCH_PEX_HA
DEPTHSCALE: 239.999996
RESOLUTION: 200
DEPTHLABELFREQ: 100.000000
HEAVYGRIDFREQ: 100.000000
MEDIUMGRIDFREQ: 50.000000
LIGHTGRIDFREQ: 10.000000
STARTTRACK:
LEFTX: 0.500000 INCH
RIGHTX: 3.000000 INCH
SCALETYPE: LINEAR
NUMCHARTDIVISIONS: 10
CURVE: GR 0.000000 150.000000 (255,0,0) LONG_DASH 2 Y
BACKUP: 150.000000 300.000000 (255,0,0) SOLID 2
BACKUP: -150.000000 0.000000 (255,0,0) SOLID 2
CURVE: HDRA -0.071900 2.642800 (255,131,0) SOLID 2 N
CURVE: PEFZ 2.124900 10.000000 (0,0,0) SOLID 2 N
CURVE: PEF8 1.984700 10.000000 (0,0,255) SOLID 2 N
CURVE: RHOZ 1.680700 4.434100 (0,131,131) SOLID 2 N
CURVE: RHO8 1.332600 4.628800 (255,0,255) SOLID 2 N
CURVE: DPHZ -1.008300 585.941500 (255,0,0) SOLID 2 N
CURVE: DPH8 -1.122100 585.941500 (255,131,0) SOLID 2 N
CURVE: HGR 11.070400 461.898600 (0,0,0) SOLID 2 N
CURVE: NPHI 0.200000 200.000000 (131,65,65) SOLID 2 Y
BACKUP: 200.000000 200000.000000 (131,65,65) SOLID 2
BACKUP: 0.000200 0.200000 (131,65,65) SOLID 2
ENDTRACK:
STARTTRACK:
LEFTX: 3.750000 INCH
RIGHTX: 8.750000 INCH
SCALETYPE: LOG
NUMCYCLES: 3
STARTCYCLE: 2
CURVE: HRM 0.200000 200.000000 (0,0,255) SOLID 2 N
CURVE: HLLS 0.200000 200.000000 (0,131,131) SOLID 2 N
CURVE: HLLD 0.200000 200.000000 (255,0,255) SOLID 2 N
ENDTRACK:
STARTTRACK:
LEFTX: 8.750000 INCH
RIGHTX: 11.250000 INCH
SCALETYPE: LINEAR
NUMCHARTDIVISIONS: 10
CURVE: HCAL 2.230300 15.927300 (255,0,0) SOLID 2 N
CURVE: TENS 864.000000 1950.000000 (0,131,131) SOLID 2 N
CURVE: HTEM 79.620100 103.334500 (255,0,255) SOLID 2 N
ENDTRACK:
<DESCLOGPLOTEND>
<DEPTHTRACK TYPE='REFERENCE' TRACK='1' LABEL='0' COLOR='0' HOR='0' />
<REFERENCE FONT='-96,0,-900,0,400,0,570491395,ARIAL NARROW' />
#
#  DEPT        TENS          HTEM          GR         NPHI        HCAL         HDRA          PEFZ          PEF8          RHOZ          RHO8          DPHZ         DPH8         HGR         HRM          HLLS           HLLD      
#--------- ------------- ------------ ------------ ----------- ----------- ------------- ------------- ------------- ------------- ------------- ------------ ------------ ------------ ---------- -------------- -------------- 
~ASCII LOG DATA
# ...
1685.0000 1162.00000000  86.80630000 196.64780000  0.29340000 11.27270000    0.00510000    3.52720000    3.61250000    2.70660000    2.70280000   0.00200000   0.00420000 200.64250000 0.11550000    35.80060000    37.29620000 
1685.5000 1156.00000000  86.80630000 187.71290000  0.22820000 11.20000000   -0.00040000    3.43530000    3.38300000    2.69130000    2.68570000   0.01090000   0.01420000 180.17740000 0.11550000    41.66910000    47.41610000 
1686.0000 1160.00000000  86.44700000 174.24270000  0.17920000 11.17580000    0.00290000    3.31120000    3.30000000    2.67950000    2.69310000   0.01780000   0.00990000 179.23450000 0.11550000    44.15780000    51.13080000 
1686.5000 1120.00000000  86.80630000 163.92510000  0.18230000 11.20000000    0.00930000    3.22280000    3.12920000    2.67840000    2.68270000   0.01850000   0.01600000 158.71560000 0.11550000    51.78530000    68.43930000 
1687.0000 1143.00000000  86.80630000 171.48580000  0.20350000 11.22420000    0.01190000    3.18210000    3.19330000    2.67080000    2.64950000   0.02290000   0.03540000 150.88820000 0.11530000    55.34620000    70.63630000 
1687.5000 1169.00000000  86.44700000 180.15920000  0.24350000 11.22420000    0.00100000    3.23320000    3.18500000    2.64300000    2.64180000   0.03920000   0.03990000 203.91820000 0.11530000    56.17760000    72.95820000 
1688.0000 1115.00000000  86.44700000 192.88420000  0.25500000 11.24850000   -0.00060000    3.26110000    3.19220000    2.64190000    2.64640000   0.03980000   0.03720000 187.72790000 0.11530000    48.98590000    57.53410000 
1688.5000 1164.00000000  86.80630000 196.05220000  0.25500000 11.24850000   -0.00210000    3.31810000    3.34840000    2.64770000    2.66470000   0.03640000   0.02650000 184.98580000 0.11530000    42.48090000    47.08070000 
1689.0000 1216.00000000  86.80630000 193.21930000  0.24170000 11.24850000    0.00200000    3.26890000    3.26200000    2.67170000    2.67640000   0.02240000   0.01970000 213.08260000 0.11530000    42.22070000    46.73830000 
1689.5000 1111.00000000  86.80630000 195.97060000  0.24160000 11.24850000    0.00140000    3.27500000    3.31410000    2.66880000    2.69260000   0.02410000   0.01020000 183.93380000 0.11520000    40.64610000    44.87800000 
1690.0000 1102.00000000  86.80630000 182.53460000  0.25310000 11.24850000    0.00350000    3.25260000    3.29520000    2.67590000    2.66670000   0.02000000   0.02530000 197.43790000 0.11520000    43.34310000    50.52510000 
1690.5000 1228.00000000  86.80630000 192.84120000  0.26080000 11.24850000    0.00160000    3.26630000    3.12350000    2.66650000    2.65290000   0.02540000   0.03340000 171.67470000 0.11520000    44.58670000    52.90280000 
1691.0000 1132.00000000  86.80630000 202.12700000  0.30490000 11.24850000    0.00160000    3.26140000    3.36690000    2.67060000    2.67540000   0.02300000   0.02020000 207.14590000 0.11520000    44.93920000    52.92440000 
1691.5000 1076.00000000  86.80630000 214.45640000  0.30830000 11.24850000    0.00140000    3.23910000    3.22210000    2.67330000    2.68400000   0.02150000   0.01520000 227.94340000 0.11520000    41.53990000    47.25830000 
1692.0000 1208.00000000  86.80630000 207.65250000  0.29010000 11.22420000    0.00340000    3.21030000    3.17800000    2.68020000    2.69070000   0.01740000   0.01130000 208.81540000 0.11510000    40.44020000    45.20110000 
1692.5000 1205.00000000  86.80630000 192.88300000  0.25760000 11.24850000    0.00620000    3.22590000    3.15170000    2.68690000    2.69460000   0.01350000   0.00900000 188.53860000 0.11510000    42.34410000    47.66830000 
1693.0000 1092.00000000  86.80630000 187.11130000  0.23670000 11.22420000    0.00640000    3.29300000    3.21950000    2.69000000    2.67680000   0.01170000   0.01940000 185.33720000 0.11500000    44.87140000    52.88840000 
1693.5000 1235.00000000  86.80630000 195.28930000  0.26600000 11.23640000    0.00470000    3.38360000    3.39320000    2.67870000    2.64460000   0.01830000   0.03820000 195.83710000 0.11500000    45.50100000    54.45270000 
1694.0000 1201.00000000  86.80630000 203.86830000  0.26640000 11.22420000    0.00220000    3.46650000    3.53670000    2.66910000    2.67500000   0.02390000   0.02050000 213.13320000 0.11500000    45.14570000    55.82240000 
1694.5000 1049.00000000  86.80630000 206.93660000  0.31030000 11.24850000    0.00190000    3.54200000    3.57410000    2.67080000    2.69450000   0.02300000   0.00910000 202.64280000 0.11500000    39.26820000    45.44560000 
1695.0000 1183.00000000  86.80630000 217.93020000  0.31910000 11.27270000    0.00670000    3.63100000    3.63670000    2.70210000    2.70860000   0.00460000   0.00080000 206.18980000 0.11500000    33.38510000    35.69910000 
1695.5000 1283.00000000  86.80630000 237.18970000  0.34430000 11.29700000    0.00690000    3.71800000    3.79750000    2.72160000    2.76110000  -0.00680000  -0.02990000 249.30440000 0.11490000    32.21320000    33.81760000 
1696.0000 1068.00000000  86.80630000 234.46540000  0.30610000 11.32120000    0.01390000    3.81570000    3.80750000    2.74480000    2.73310000  -0.02040000  -0.01350000 262.44050000 0.11490000    29.99940000    31.06840000 
1696.5000 1115.00000000  86.80630000 216.42880000  0.30160000 11.32120000    0.01080000    3.84990000    3.87920000    2.74320000    2.71800000  -0.01940000  -0.00470000 190.60220000 0.11490000    29.49390000    30.73360000 
1697.0000 1289.00000000  86.80630000 190.91220000  0.30240000 11.32120000    0.01010000    3.87210000    3.91960000    2.73930000    2.72660000  -0.01720000  -0.00970000 191.26920000 0.11490000    29.80620000    31.30570000 
1697.5000 1164.00000000  87.16560000 194.00750000  0.33970000 11.34550000    0.00240000    3.81260000    3.78800000    2.72110000    2.73140000  -0.00650000  -0.01250000 186.78990000 0.11490000    29.13170000    30.04750000 
1698.0000 1114.00000000  87.16560000 209.63930000  0.35660000 11.34550000    0.00200000    3.75190000    3.75500000    2.71330000    2.71850000  -0.00200000  -0.00490000 201.44140000 0.11490000    28.70490000    30.25580000 
1698.5000 1266.00000000  86.80630000 212.45710000  0.34120000 11.34550000    0.00370000    3.68740000    3.55780000    2.70720000    2.71380000   0.00160000  -0.00220000 238.50850000 0.11490000    28.96310000    29.91830000 
1699.0000 1132.00000000  86.80630000 223.51690000  0.31910000 11.34550000    0.00300000    3.70970000    3.67650000    2.69040000    2.66850000   0.01150000   0.02430000 194.14500000 0.11480000    28.71120000    29.70620000 
1699.5000 1035.00000000  87.16560000 213.28460000  0.28580000 11.32120000    0.00060000    3.75610000    3.80400000    2.67280000    2.67980000   0.02170000   0.01770000 236.66230000 0.11480000    28.74380000    29.87710000 
1700.0000 1266.00000000  86.80630000 215.62000000  0.28920000 11.32120000   -0.00240000    3.75340000    3.75140000    2.66110000    2.67960000   0.02860000   0.01780000 209.47550000 0.11480000    28.86750000    30.40380000 
1700.5000 1242.00000000  86.80630000 210.75070000  0.28710000 11.29700000   -0.00310000    3.66190000    3.58450000    2.65730000    2.65950000   0.03080000   0.02950000 203.21400000 0.11470000    30.02410000    33.01120000 
1701.0000 1092.00000000  86.80630000 204.44890000  0.27800000 11.32120000   -0.00300000    3.58450000    3.46770000    2.65320000    2.63680000   0.03320000   0.04280000 216.68070000 0.11470000    33.85000000    37.43270000 
1701.5000 1237.00000000  87.16560000 208.22800000  0.26510000 11.29700000   -0.00190000    3.56330000    3.44630000    2.65600000    2.64460000   0.03160000   0.03820000 194.56060000 0.11470000    36.86990000    42.76180000 
1702.0000 1225.00000000  86.80630000 202.38130000  0.26700000 11.27270000   -0.00010000    3.60250000    3.58820000    2.67130000    2.69200000   0.02270000   0.01050000 213.62680000 0.11470000    36.85940000    42.21330000 
1702.5000 1028.00000000  86.80630000 199.05340000  0.29050000 11.28480000    0.00210000    3.65630000    3.69790000    2.69390000    2.70880000   0.00940000   0.00070000 200.23100000 0.11460000    35.01640000    38.92450000 
