# LAS WORX (tm) v19.05.17 Header Hash (-8291391322489380521) Data Hash (-686710286087721855) DO NOT REMOVE THIS LINE
~VERSION INFORMATION SECTION
VERS. 2.00 : CWLS LOG ASCII STANDARD - VERSION 2.000000
WRAP. NO   : ONE LINE PER DEPTH STEP
#
#MNEM UNIT                   VALUE/NAME                            DESCRIPTION      
#---- ---- -----------------------------------------------   -----------------------
~WELL INFORMATION SECTION
STRT.F                                           875.0000 : START DEPTH
STOP.F                                          4970.0000 : STOP DEPTH
STEP.F                                             0.5000 : STEP
NULL.                                            -999.250 : NULL VALUE
API .                                      34157253340000 : API NUMBER
CNTY.                                          TUSCARAWAS : COUNTY
COMP.                  OHIO DIVISION OF GEOLOGICAL SURVEY : COMPANY
CTRY.                                                 USA : COUNTRY
DATE.                                            6/9/2007 : DATE
EPD .FT                                               927 : ELEVATION OF REF. DATUM
FILE.NM                         34157253340000_GND_PE_RES : FILE NAME
FLD .                                               SALEM : FIELD
GDAT.                                               NAD83 : GEODETIC DATUM
LAT .                                           40.353705 : LATITUDE
LOC .                             4360'NL & 70'EL OF TWP. : LOCATION
LON .                                          -81.489962 : LONGITUDE
SRVC.                                        SCHLUMBERGER : SERVICE COMPANY
STAT.                                                  OH : STATE
TLD .                                                4970 : TOTAL LOG DEPTH
TWP .                                               SALEM : TOWNSHIP
UWI .                                      34157253340000 : UWI NUMBER
WELL.      BELDEN BRICK UNIT (OHIO GEOLOGICAL SURVEY CO2) : WELL
WSTA.                                           PRODUCING : WELL STATUS
#
#MNEM UNIT API CODES                             DESCRIPTION                          
#---- ---- ---------   ---------------------------------------------------------------
~CURVE INFORMATION SECTION
DEPT.F              : DEPTH IN FEET
TENS.LBF            : CABLE TENSION {F13.4}
HTEM.DEGF           : HTC TEMPERATURE {F13.4}
GR  .GAPI           : GAMMA-RAY {F13.4}
NPHI.CFCF           : THERMAL NEUTRON POROSITY (RATIO METHOD) {F13.4}
HCAL.IN             : HRCC CAL. CALIPER {F13.4}
HDRA.G/C3           : HRDD DENSITY CORRECTION {F13.4}
PEFZ.B/E            : HRDD STANDARD RESOLUTION FORMATION PHOTOELECTRIC FACTOR {F13.4}
PEF8.B/E            : HRDD HIGH RESOLUTION FORMATION PHOTOELECTRIC FACTOR {F13.4}
RHOZ.G/C3           : HRDD STANDARD RESOLUTION FORMATION DENSITY {F13.4}
RHO8.G/C3           : HRDD HIGH RESOLUTION FORMATION DENSITY {F13.4}
DPHZ.CFCF           : HRDD STANDARD RESOLUTION DENSITY POROSITY {F13.4}
DPH8.CFCF           : HRDD HIGH RESOLUTION DENSITY POROSITY {F13.4}
HGR .GAPI           : HIRES GAMMA-RAY {F13.4}
HRM .OHMM           : HALS MUD RESISTIVITY {F13.4}
HLLS.OHMM           : HALS LATEROLOG SHALLOW RESISTIVITY {F13.4}
HLLD.OHMM           : HALS LATEROLOG DEEP RESISTIVITY {F13.4}
#
#    MNEM      UNIT  VALUE/NAME           DESCRIPTION       
#------------- ---- -------------   ------------------------
~PARAMETERS INFORMATION SECTION
APD          .F        12.000000 : ABOVE PERMANENT DATUM
EGROUND LEVEL.FT        917.0000 : 
EPD          .F       917.000000 : ELEVATION OF PERM. DATUM
LMF          .     KELLY BUSHING : LOG MEASURED FROM
PDAT         .      GROUND LEVEL : PERMANENT DATUM
RUN          .               ONE : RUN NUMBER
TD           .FT       4970.0000 : TOTAL DEPTH
WSTA         .               LOC : 
#
~OTHER INFORMATION SECTION
<DESCLOGPLOTSTART> NEURALOG PLOT DEFINITION
PLOTDEFVERSION: 3
LASFILE: S:\IMAGES\GEOPHYSRASTERLOGS\HOLDING_LAS\!WORKING FOLDER!\6_INCH_PEX_HA
DEPTHSCALE: 239.999996
RESOLUTION: 200
DEPTHLABELFREQ: 100.000000
HEAVYGRIDFREQ: 100.000000
MEDIUMGRIDFREQ: 50.000000
LIGHTGRIDFREQ: 10.000000
STARTTRACK:
LEFTX: 0.500000 INCH
RIGHTX: 3.000000 INCH
SCALETYPE: LINEAR
NUMCHARTDIVISIONS: 10
CURVE: GR 0.000000 150.000000 (255,0,0) LONG_DASH 2 Y
BACKUP: 150.000000 300.000000 (255,0,0) SOLID 2
BACKUP: -150.000000 0.000000 (255,0,0) SOLID 2
CURVE: HDRA -0.071900 2.642800 (255,131,0) SOLID 2 N
CURVE: PEFZ 2.124900 10.000000 (0,0,0) SOLID 2 N
CURVE: PEF8 1.984700 10.000000 (0,0,255) SOLID 2 N
CURVE: RHOZ 1.680700 4.434100 (0,131,131) SOLID 2 N
CURVE: RHO8 1.332600 4.628800 (255,0,255) SOLID 2 N
CURVE: DPHZ -1.008300 585.941500 (255,0,0) SOLID 2 N
CURVE: DPH8 -1.122100 585.941500 (255,131,0) SOLID 2 N
CURVE: HGR 11.070400 461.898600 (0,0,0) SOLID 2 N
CURVE: NPHI 0.200000 200.000000 (131,65,65) SOLID 2 Y
BACKUP: 200.000000 200000.000000 (131,65,65) SOLID 2
BACKUP: 0.000200 0.200000 (131,65,65) SOLID 2
ENDTRACK:
STARTTRACK:
LEFTX: 3.750000 INCH
RIGHTX: 8.750000 INCH
SCALETYPE: LOG
NUMCYCLES: 3
STARTCYCLE: 2
CURVE: HRM 0.200000 200.000000 (0,0,255) SOLID 2 N
CURVE: HLLS 0.200000 200.000000 (0,131,131) SOLID 2 N
CURVE: HLLD 0.200000 200.000000 (255,0,255) SOLID 2 N
ENDTRACK:
STARTTRACK:
LEFTX: 8.750000 INCH
RIGHTX: 11.250000 INCH
SCALETYPE: LINEAR
NUMCHARTDIVISIONS: 10
CURVE: HCAL 2.230300 15.927300 (255,0,0) SOLID 2 N
CURVE: TENS 864.000000 1950.000000 (0,131,131) SOLID 2 N
CURVE: HTEM 79.620100 103.334500 (255,0,255) SOLID 2 N
ENDTRACK:
<DESCLOGPLOTEND>
<DEPTHTRACK TYPE='REFERENCE' TRACK='1' LABEL='0' COLOR='0' HOR='0' />
<REFERENCE FONT='-96,0,-900,0,400,0,570491395,ARIAL NARROW' />
#
#  DEPT        TENS          HTEM          GR         NPHI        HCAL         HDRA          PEFZ          PEF8          RHOZ          RHO8          DPHZ         DPH8         HGR         HRM          HLLS           HLLD      
#--------- ------------- ------------ ------------ ----------- ----------- ------------- ------------- ------------- ------------- ------------- ------------ ------------ ------------ ---------- -------------- -------------- 
~ASCII LOG DATA
# ...
2513.0000 1307.00000000  94.71110000 215.99740000  0.29920000 11.39390000    0.01890000    3.59830000    3.47680000    2.72100000    2.69940000  -0.00640000   0.00620000 236.00620000 0.10510000    38.06900000    42.68780000 
2513.5000 1294.00000000  94.71110000 242.82310000  0.31680000 11.36970000    0.01310000    3.46160000    3.44420000    2.69380000    2.67560000   0.00950000   0.02010000 239.88420000 0.10510000    43.37050000    52.44990000 
2514.0000 1293.00000000  94.35180000 254.50390000  0.31910000 11.32120000    0.01350000    3.44880000    3.38410000    2.69690000    2.71530000   0.00760000  -0.00310000 261.63180000 0.10510000    49.30450000    62.80700000 
2514.5000 1279.00000000  94.35180000 260.82090000  0.31590000 11.34550000    0.01200000    3.45370000    3.46780000    2.69970000    2.68370000   0.00600000   0.01540000 264.11650000 0.10520000    48.36490000    60.25400000 
2515.0000 1302.00000000  94.35180000 250.84720000  0.29730000 11.34550000    0.00510000    3.43380000    3.39400000    2.69080000    2.68530000   0.01130000   0.01440000 252.24570000 0.10520000    45.61800000    54.96060000 
2515.5000 1331.00000000  94.71110000 241.65540000  0.29870000 11.34550000    0.00070000    3.49940000    3.47300000    2.67330000    2.69110000   0.02140000   0.01100000 235.55930000 0.10520000    40.09210000    46.20940000 
2516.0000 1307.00000000  94.71110000 240.45220000  0.31560000 11.34550000   -0.00210000    3.50710000    3.43300000    2.66520000    2.67470000   0.02620000   0.02070000 235.95570000 0.10520000    36.98780000    40.71600000 
2516.5000 1312.00000000  95.07040000 252.73670000  0.35930000 11.32120000   -0.00110000    3.51850000    3.38360000    2.65710000    2.65150000   0.03100000   0.03420000 253.00560000 0.10520000    37.57550000    41.32430000 
2517.0000 1313.00000000  95.07040000 267.18130000  0.35890000 11.32120000    0.00150000    3.49600000    3.38560000    2.64510000    2.65460000   0.03800000   0.03240000 269.73430000 0.10520000    42.80040000    50.23850000 
2517.5000 1315.00000000  95.07040000 272.59590000  0.34630000 11.30910000    0.00170000    3.52460000    3.63210000    2.62690000    2.58290000   0.04860000   0.07430000 281.30710000 0.10520000    47.36810000    59.50920000 
2518.0000 1336.00000000  94.71110000 270.53450000  0.32010000 11.29700000    0.00350000    3.58880000    3.56400000    2.63490000    2.63990000   0.04390000   0.04100000 274.79270000 0.10520000    52.04340000    71.87530000 
2518.5000 1294.00000000  94.71110000 265.03180000  0.31990000 11.34550000    0.00410000    3.62790000    3.66180000    2.66850000    2.71520000   0.02430000  -0.00300000 266.11670000 0.10520000    41.67050000    47.84070000 
2519.0000 1279.00000000  94.71110000 247.58490000  0.32480000 11.39390000    0.00690000    3.67020000    3.62520000    2.69930000    2.70640000   0.00620000   0.00210000 262.43970000 0.10520000    34.18170000    35.74710000 
2519.5000 1350.00000000  94.71110000 243.20840000  0.32230000 11.36970000    0.00750000    3.65080000    3.71590000    2.69360000    2.69580000   0.00960000   0.00830000 218.22060000 0.10530000    30.64760000    31.03360000 
2520.0000 1351.00000000  94.71110000 249.64220000  0.35190000 11.32120000    0.00750000    3.59600000    3.59390000    2.66430000    2.63690000   0.02670000   0.04270000 251.47540000 0.10530000    32.15090000    32.87910000 
2520.5000 1293.00000000  94.71110000 276.11340000  0.33150000 11.27270000    0.00340000    3.54840000    3.47410000    2.62880000    2.59520000   0.04750000   0.06720000 282.94630000 0.10530000    41.80640000    48.26340000 
2521.0000 1318.00000000  94.71110000 277.83300000  0.38350000 11.27270000   -0.00200000    3.54930000    3.46140000    2.60890000    2.63740000   0.05910000   0.04240000 297.24010000 0.10530000    46.77110000    56.78540000 
2521.5000 1327.00000000  94.71110000 273.36690000  0.35340000 11.27270000   -0.00040000    3.52510000    3.54050000    2.62550000    2.60350000   0.04940000   0.06230000 260.44540000 0.10530000    49.53780000    59.61590000 
2522.0000 1313.00000000  95.07040000 251.70860000  0.36030000 11.29700000    0.00150000    3.48200000    3.27630000    2.65370000    2.65230000   0.03290000   0.03370000 268.42240000 0.10540000    42.12930000    47.97880000 
2522.5000 1287.00000000  95.07040000 242.42270000  0.31900000 11.29700000    0.00340000    3.43450000    3.47350000    2.68020000    2.69270000   0.01740000   0.01010000 229.03890000 0.10540000    36.26870000    38.65560000 
2523.0000 1305.00000000  95.07040000 232.20100000  0.31980000 11.29700000    0.00390000    3.43820000    3.49270000    2.69000000    2.70770000   0.01170000   0.00130000 230.74480000 0.10540000    33.04940000    33.44240000 
2523.5000 1323.00000000  95.07040000 242.12770000  0.32320000 11.30910000    0.00670000    3.46200000    3.51230000    2.69180000    2.70130000   0.01070000   0.00510000 235.14480000 0.10540000    35.12330000    37.49490000 
2524.0000 1306.00000000  95.07040000 241.35910000  0.29730000 11.29700000    0.01000000    3.48230000    3.36500000    2.68490000    2.65310000   0.01470000   0.03330000 254.66930000 0.10530000    37.53410000    40.36430000 
2524.5000 1294.00000000  94.71110000 250.30100000  0.27900000 11.29700000    0.01300000    3.50400000    3.52340000    2.66970000    2.63990000   0.02360000   0.04100000 221.65410000 0.10530000    44.03550000    51.92790000 
2525.0000 1332.00000000  94.71110000 253.60990000  0.33040000 11.30910000    0.01020000    3.49140000    3.44000000    2.64540000    2.68710000   0.03780000   0.01340000 263.64100000 0.10530000    42.26210000    45.78880000 
2525.5000 1353.00000000  94.71110000 272.50530000  0.34810000 11.32120000    0.00450000    3.51450000    3.51690000    2.61970000    2.60260000   0.05280000   0.06280000 271.16450000 0.10530000    48.16120000    57.38430000 
2526.0000 1323.00000000  94.71110000 263.90730000  0.36440000 11.29700000    0.00100000    3.49700000    3.37710000    2.61530000    2.62370000   0.05540000   0.05050000 282.44880000 0.10530000    47.39080000    57.17800000 
2526.5000 1307.00000000  94.71110000 262.40320000  0.34220000 11.30910000    0.00160000    3.51050000    3.46820000    2.62420000    2.64650000   0.05020000   0.03710000 229.90980000 0.10540000    40.75690000    44.81450000 
2527.0000 1322.00000000  94.71110000 264.46460000  0.39130000 11.39390000    0.01170000    3.51620000    3.60930000    2.65350000    2.63920000   0.03300000   0.04140000 262.63850000 0.10540000    34.28920000    36.65180000 
2527.5000 1342.00000000  94.71110000 273.06250000  0.40710000 11.29700000    0.02280000    3.57270000    3.53130000    2.67060000    2.68110000   0.02300000   0.01690000 285.37590000 0.10540000    35.35300000    36.97420000 
2528.0000 1323.00000000  94.71110000 270.35530000  0.38950000 11.29700000    0.03590000    3.62740000    3.55570000    2.68730000    2.69770000   0.01330000   0.00720000 268.47050000 0.10530000    39.99650000    46.29390000 
2528.5000 1334.00000000  94.71110000 264.26790000  0.35270000 11.29700000    0.04430000    3.65030000    3.69780000    2.69340000    2.68690000   0.00970000   0.01350000 263.15740000 0.10530000    38.83710000    41.62890000 
2529.0000 1363.00000000  95.07040000 272.07520000  0.33240000 11.29700000    0.03760000    3.62310000    3.53520000    2.67410000    2.66520000   0.02100000   0.02620000 270.46470000 0.10530000    37.90410000    38.46530000 
2529.5000 1347.00000000  94.71110000 271.47360000  0.31210000 11.28480000    0.02720000    3.60310000    3.69160000    2.66070000    2.64880000   0.02880000   0.03580000 287.35520000 0.10530000    45.86700000    54.90180000 
2530.0000 1338.00000000  95.07040000 258.74860000  0.29880000 11.27270000    0.02250000    3.62210000    3.56000000    2.67960000    2.69650000   0.01780000   0.00790000 255.91920000 0.10530000    46.64680000    55.09640000 
2530.5000 1314.00000000  94.71110000 236.84060000  0.30470000 11.24850000    0.03050000    3.68930000    3.61720000    2.71090000    2.76970000  -0.00050000  -0.03490000 232.74500000 0.10530000    43.69170000    50.95960000 
