# LAS WORX (tm) v19.05.17 Header Hash (-8291391322489380521) Data Hash (-686710286087721855) DO NOT REMOVE THIS LINE
~VERSION INFORMATION SECTION
VERS. 2.00 : CWLS LOG ASCII STANDARD - VERSION 2.000000
WRAP. NO   : ONE LINE PER DEPTH STEP
#
#MNEM UNIT                   VALUE/NAME                            DESCRIPTION      
#---- ---- -----------------------------------------------   -----------------------
~WELL INFORMATION SECTION
STRT.F                                           875.0000 : START DEPTH
STOP.F                                          4970.0000 : STOP DEPTH
STEP.F                                             0.5000 : STEP
NULL.                                            -999.250 : NULL VALUE
API .                                      34157253340000 : API NUMBER
CNTY.                                          TUSCARAWAS : COUNTY
COMP.                  OHIO DIVISION OF GEOLOGICAL SURVEY : COMPANY
CTRY.                                                 USA : COUNTRY
DATE.                                            6/9/2007 : DATE
EPD .FT                                               927 : ELEVATION OF REF. DATUM
FILE.NM                         34157253340000_GND_PE_RES : FILE NAME
FLD .                                               SALEM : FIELD
GDAT.                                               NAD83 : GEODETIC DATUM
LAT .                                           40.353705 : LATITUDE
LOC .                             4360'NL & 70'EL OF TWP. : LOCATION
LON .                                          -81.489962 : LONGITUDE
SRVC.                                        SCHLUMBERGER : SERVICE COMPANY
STAT.                                                  OH : STATE
TLD .                                                4970 : TOTAL LOG DEPTH
TWP .                                               SALEM : TOWNSHIP
UWI .                                      34157253340000 : UWI NUMBER
WELL.      BELDEN BRICK UNIT (OHIO GEOLOGICAL SURVEY CO2) : WELL
WSTA.                                           PRODUCING : WELL STATUS
#
#MNEM UNIT API CODES                             DESCRIPTION                          
#---- ---- ---------   ---------------------------------------------------------------
~CURVE INFORMATION SECTION
DEPT.F              : DEPTH IN FEET
TENS.LBF            : CABLE TENSION {F13.4}
HTEM.DEGF           : HTC TEMPERATURE {F13.4}
GR  .GAPI           : GAMMA-RAY {F13.4}
NPHI.CFCF           : THERMAL NEUTRON POROSITY (RATIO METHOD) {F13.4}
HCAL.IN             : HRCC CAL. CALIPER {F13.4}
HDRA.G/C3           : HRDD DENSITY CORRECTION {F13.4}
PEFZ.B/E            : HRDD STANDARD RESOLUTION FORMATION PHOTOELECTRIC FACTOR {F13.4}
PEF8.B/E            : HRDD HIGH RESOLUTION FORMATION PHOTOELECTRIC FACTOR {F13.4}
RHOZ.G/C3           : HRDD STANDARD RESOLUTION FORMATION DENSITY {F13.4}
RHO8.G/C3           : HRDD HIGH RESOLUTION FORMATION DENSITY {F13.4}
DPHZ.CFCF           : HRDD STANDARD RESOLUTION DENSITY POROSITY {F13.4}
DPH8.CFCF           : HRDD HIGH RESOLUTION DENSITY POROSITY {F13.4}
HGR .GAPI           : HIRES GAMMA-RAY {F13.4}
HRM .OHMM           : HALS MUD RESISTIVITY {F13.4}
HLLS.OHMM           : HALS LATEROLOG SHALLOW RESISTIVITY {F13.4}
HLLD.OHMM           : HALS LATEROLOG DEEP RESISTIVITY {F13.4}
#
#    MNEM      UNIT  VALUE/NAME           DESCRIPTION       
#------------- ---- -------------   ------------------------
~PARAMETERS INFORMATION SECTION
APD          .F        12.000000 : ABOVE PERMANENT DATUM
EGROUND LEVEL.FT        917.0000 : 
EPD          .F       917.000000 : ELEVATION OF PERM. DATUM
LMF          .     KELLY BUSHING : LOG MEASURED FROM
PDAT         .      GROUND LEVEL : PERMANENT DATUM
RUN          .               ONE : RUN NUMBER
TD           .FT       4970.0000 : TOTAL DEPTH
WSTA         .               LOC : 
#
~OTHER INFORMATION SECTION
<DESCLOGPLOTSTART> NEURALOG PLOT DEFINITION
PLOTDEFVERSION: 3
LASFILE: S:\IMAGES\GEOPHYSRASTERLOGS\HOLDING_LAS\!WORKING FOLDER!\6_INCH_PEX_HA
DEPTHSCALE: 239.999996
RESOLUTION: 200
DEPTHLABELFREQ: 100.000000
HEAVYGRIDFREQ: 100.000000
MEDIUMGRIDFREQ: 50.000000
LIGHTGRIDFREQ: 10.000000
STARTTRACK:
LEFTX: 0.500000 INCH
RIGHTX: 3.000000 INCH
SCALETYPE: LINEAR
NUMCHARTDIVISIONS: 10
CURVE: GR 0.000000 150.000000 (255,0,0) LONG_DASH 2 Y
BACKUP: 150.000000 300.000000 (255,0,0) SOLID 2
BACKUP: -150.000000 0.000000 (255,0,0) SOLID 2
CURVE: HDRA -0.071900 2.642800 (255,131,0) SOLID 2 N
CURVE: PEFZ 2.124900 10.000000 (0,0,0) SOLID 2 N
CURVE: PEF8 1.984700 10.000000 (0,0,255) SOLID 2 N
CURVE: RHOZ 1.680700 4.434100 (0,131,131) SOLID 2 N
CURVE: RHO8 1.332600 4.628800 (255,0,255) SOLID 2 N
CURVE: DPHZ -1.008300 585.941500 (255,0,0) SOLID 2 N
CURVE: DPH8 -1.122100 585.941500 (255,131,0) SOLID 2 N
CURVE: HGR 11.070400 461.898600 (0,0,0) SOLID 2 N
CURVE: NPHI 0.200000 200.000000 (131,65,65) SOLID 2 Y
BACKUP: 200.000000 200000.000000 (131,65,65) SOLID 2
BACKUP: 0.000200 0.200000 (131,65,65) SOLID 2
ENDTRACK:
STARTTRACK:
LEFTX: 3.750000 INCH
RIGHTX: 8.750000 INCH
SCALETYPE: LOG
NUMCYCLES: 3
STARTCYCLE: 2
CURVE: HRM 0.200000 200.000000 (0,0,255) SOLID 2 N
CURVE: HLLS 0.200000 200.000000 (0,131,131) SOLID 2 N
CURVE: HLLD 0.200000 200.000000 (255,0,255) SOLID 2 N
ENDTRACK:
STARTTRACK:
LEFTX: 8.750000 INCH
RIGHTX: 11.250000 INCH
SCALETYPE: LINEAR
NUMCHARTDIVISIONS: 10
CURVE: HCAL 2.230300 15.927300 (255,0,0) SOLID 2 N
CURVE: TENS 864.000000 1950.000000 (0,131,131) SOLID 2 N
CURVE: HTEM 79.620100 103.334500 (255,0,255) SOLID 2 N
ENDTRACK:
<DESCLOGPLOTEND>
<DEPTHTRACK TYPE='REFERENCE' TRACK='1' LABEL='0' COLOR='0' HOR='0' />
<REFERENCE FONT='-96,0,-900,0,400,0,570491395,ARIAL NARROW' />
#
#  DEPT        TENS          HTEM          GR         NPHI        HCAL         HDRA          PEFZ          PEF8          RHOZ          RHO8          DPHZ         DPH8         HGR         HRM          HLLS           HLLD      
#--------- ------------- ------------ ------------ ----------- ----------- ------------- ------------- ------------- ------------- ------------- ------------ ------------ ------------ ---------- -------------- -------------- 
~ASCII LOG DATA
# ...
2243.0000 1219.00000000  92.19590000 290.35700000  0.35220000 11.24850000    0.01520000    3.69600000    3.59840000    2.61160000    2.62810000   0.05760000   0.04790000 269.26670000 0.10790000   102.20060000   221.88020000 
2243.5000 1252.00000000  92.19590000 289.81770000  0.34110000 11.24850000    0.01650000    3.66190000    3.68410000    2.62270000    2.65260000   0.05100000   0.03360000 308.60820000 0.10790000    99.02680000   192.33670000 
2244.0000 1293.00000000  92.19590000 298.75960000  0.30440000 11.24850000    0.01100000    3.62570000    3.53860000    2.60920000    2.61620000   0.05900000   0.05480000 298.62130000 0.10780000    90.15900000   155.34640000 
2244.5000 1248.00000000  92.55520000 287.41030000  0.30770000 11.24850000    0.00090000    3.61520000    3.59350000    2.57370000    2.57630000   0.07970000   0.07820000 296.55560000 0.10780000    87.37990000   169.34050000 
2245.0000 1206.00000000  92.55520000 285.75220000  0.29220000 11.24850000   -0.00560000    3.59840000    3.48850000    2.55390000    2.56240000   0.09130000   0.08630000 271.27900000 0.10780000    92.18790000   171.23500000 
2245.5000 1264.00000000  92.55520000 274.05900000  0.31900000 11.24850000   -0.00430000    3.52480000    3.54900000    2.56830000    2.56000000   0.08290000   0.08770000 288.48320000 0.10780000    92.41660000   170.81130000 
2246.0000 1274.00000000  92.55520000 272.68330000  0.30850000 11.24850000   -0.00230000    3.49090000    3.40290000    2.58400000    2.58580000   0.07370000   0.07260000 258.42440000 0.10780000    85.74260000   146.89900000 
2246.5000 1250.00000000  92.55520000 261.28630000  0.33590000 11.24850000   -0.00020000    3.50830000    3.67460000    2.59210000    2.59630000   0.06900000   0.06650000 262.43700000 0.10770000    70.75970000    95.55330000 
2247.0000 1251.00000000  92.19590000 267.82080000  0.32050000 11.29700000   -0.00030000    3.55410000    3.52550000    2.58690000    2.58120000   0.07200000   0.07530000 262.49190000 0.10770000    71.93790000   101.16590000 
2247.5000 1285.00000000  92.19590000 269.78810000  0.30860000 11.29700000    0.00140000    3.55860000    3.56920000    2.59400000    2.58970000   0.06780000   0.07040000 280.09990000 0.10770000    73.14030000   109.76190000 
2248.0000 1262.00000000  92.19590000 267.47320000  0.29240000 11.29700000    0.00220000    3.55740000    3.62260000    2.60770000    2.61420000   0.05980000   0.05600000 269.74200000 0.10770000    71.49830000   108.22480000 
2248.5000 1215.00000000  92.19590000 256.09100000  0.30370000 11.29700000    0.00290000    3.57120000    3.60980000    2.62360000    2.63180000   0.05050000   0.04580000 250.74520000 0.10770000    60.84170000    78.88020000 
2249.0000 1238.00000000  92.55520000 245.09740000  0.29600000 11.30910000    0.01190000    3.60010000    3.54260000    2.65350000    2.66090000   0.03300000   0.02870000 245.48580000 0.10760000    53.57650000    62.80250000 
2249.5000 1305.00000000  92.55520000 232.02840000  0.28010000 11.32120000    0.02320000    3.59940000    3.60060000    2.68900000    2.68100000   0.01230000   0.01700000 239.24700000 0.10760000    49.34180000    58.00400000 
2250.0000 1266.00000000  92.55520000 218.30440000  0.25290000 11.29700000    0.03150000    3.59130000    3.59410000    2.72060000    2.75670000  -0.00620000  -0.02730000 211.99710000 0.10760000    42.90540000    47.38020000 
2250.5000 1219.00000000  92.55520000 195.69020000  0.23380000 11.29700000    0.03210000    3.56240000    3.41020000    2.73030000    2.70130000  -0.01180000   0.00510000 208.68210000 0.10760000    37.32010000    37.51230000 
2251.0000 1276.00000000  92.55520000 193.89640000  0.24240000 11.22420000    0.02110000    3.58320000    3.46530000    2.71230000    2.70250000  -0.00130000   0.00440000 170.95340000 0.10760000    42.23750000    47.74130000 
2251.5000 1309.00000000  92.55520000 199.79940000  0.25770000 11.30910000    0.01220000    3.66700000    3.76550000    2.69760000    2.73960000   0.00720000  -0.01730000 207.18410000 0.10760000    37.14670000    37.89580000 
2252.0000 1257.00000000  92.19590000 219.05890000  0.26400000 11.32120000    0.00900000    3.75490000    3.85100000    2.69980000    2.70600000   0.00600000   0.00240000 223.02640000 0.10750000    36.79520000    37.73060000 
2252.5000 1234.00000000  92.19590000 227.30410000  0.27160000 11.34550000    0.01210000    3.79680000    3.76690000    2.71430000    2.69680000  -0.00250000   0.00770000 228.33640000 0.10750000    38.91600000    41.52510000 
2253.0000 1276.00000000  92.19590000 236.53370000  0.27110000 11.34550000    0.02960000    3.83780000    3.79920000    2.74170000    2.76050000  -0.01850000  -0.02950000 234.04960000 0.10760000    36.71920000    37.48310000 
2253.5000 1310.00000000  92.19590000 229.23820000  0.29560000 11.34550000    0.02980000    3.88110000    3.95000000    2.72770000    2.73210000  -0.01030000  -0.01290000 252.82010000 0.10760000    36.43630000    37.54760000 
2254.0000 1234.00000000  92.19590000 224.16250000  0.30250000 11.34550000    0.03590000    3.94780000    3.96020000    2.71520000    2.70090000  -0.00300000   0.00530000 206.38370000 0.10760000    35.90640000    37.84180000 
2254.5000 1212.00000000  92.55520000 210.40570000  0.29280000 11.32120000    0.04170000    3.98350000    4.00780000    2.71090000    2.68410000  -0.00050000   0.01520000 223.93640000 0.10760000    38.44420000    43.09870000 
2255.0000 1305.00000000  92.55520000 218.30740000  0.29340000 11.24850000    0.06070000    4.00040000    3.94800000    2.73470000    2.77000000  -0.01450000  -0.03510000 211.48730000 0.10760000    36.89500000    41.74180000 
2255.5000 1308.00000000  92.55520000 226.35720000  0.28680000 11.34550000    0.07190000    3.98000000    4.08690000    2.75260000    2.78670000  -0.02490000  -0.04480000 228.07870000 0.10760000    31.87700000    32.95290000 
2256.0000 1243.00000000  92.55520000 220.51050000  0.24880000 11.36970000    0.06820000    3.93410000    3.98670000    2.74400000    2.71270000  -0.01990000  -0.00160000 244.69290000 0.10760000    32.53530000    34.68220000 
2256.5000 1250.00000000  92.55520000 215.35730000  0.20880000 11.33330000    0.06540000    3.89610000    3.74000000    2.74960000    2.75870000  -0.02320000  -0.02850000 195.44010000 0.10760000    35.77240000    38.98990000 
2257.0000 1295.00000000  92.55520000 204.21220000  0.19030000 11.32120000    0.06830000    3.88910000    3.89940000    2.75420000    2.75310000  -0.02580000  -0.02520000 212.43700000 0.10760000    39.19970000    45.80670000 
2257.5000 1300.00000000  92.55520000 212.81020000  0.20980000 11.34550000    0.08500000    3.90680000    3.92420000    2.75860000    2.75460000  -0.02840000  -0.02610000 208.67010000 0.10760000    37.23950000    43.54800000 
2258.0000 1247.00000000  92.55520000 205.59560000  0.24500000 11.36970000    0.11600000    3.92120000    3.93900000    2.75580000    2.77050000  -0.02680000  -0.03540000 220.71980000 0.10760000    34.12190000    38.07550000 
2258.5000 1230.00000000  92.19590000 204.70830000  0.26880000 11.39390000    0.15420000    3.92860000    3.84830000    2.77450000    2.74830000  -0.03770000  -0.02240000 192.74380000 0.10770000    34.48740000    36.87210000 
2259.0000 1301.00000000  92.19590000 202.65210000  0.27430000 11.33330000    0.17080000    3.91370000    4.00540000    2.78580000    2.86510000  -0.04430000  -0.09070000 210.20190000 0.10770000    38.20200000    45.16940000 
2259.5000 1301.00000000  92.19590000 216.36010000  0.28990000 11.34550000    0.15700000    3.88500000    3.93500000    2.79580000    2.79670000  -0.05020000  -0.05070000 210.48490000 0.10780000    37.09220000    44.44350000 
2260.0000 1214.00000000  92.19590000 217.24740000  0.29320000 11.44240000    0.11630000    3.81150000    3.67480000    2.77440000    2.75380000  -0.03770000  -0.02560000 232.96010000 0.10790000    32.63430000    35.14090000 
2260.5000 1243.00000000  92.19590000 212.08130000  0.29350000 11.44240000    0.08030000    3.74240000    3.74530000    2.75900000    2.75310000  -0.02860000  -0.02520000 211.48740000 0.10800000    33.90950000    37.32970000 
