# LAS WORX (tm) v19.05.17 Header Hash (-8291391322489380521) Data Hash (-686710286087721855) DO NOT REMOVE THIS LINE
~VERSION INFORMATION SECTION
VERS. 2.00 : CWLS LOG ASCII STANDARD - VERSION 2.000000
WRAP. NO   : ONE LINE PER DEPTH STEP
#
#MNEM UNIT                   VALUE/NAME                            DESCRIPTION      
#---- ---- -----------------------------------------------   -----------------------
~WELL INFORMATION SECTION
STRT.F                                           875.0000 : START DEPTH
STOP.F                                          4970.0000 : STOP DEPTH
STEP.F                                             0.5000 : STEP
NULL.                                            -999.250 : NULL VALUE
API .                                      34157253340000 : API NUMBER
CNTY.                                          TUSCARAWAS : COUNTY
COMP.                  OHIO DIVISION OF GEOLOGICAL SURVEY : COMPANY
CTRY.                                                 USA : COUNTRY
DATE.                                            6/9/2007 : DATE
EPD .FT                                               927 : ELEVATION OF REF. DATUM
FILE.NM                         34157253340000_GND_PE_RES : FILE NAME
FLD .                                               SALEM : FIELD
GDAT.                                               NAD83 : GEODETIC DATUM
LAT .                                           40.353705 : LATITUDE
LOC .                             4360'NL & 70'EL OF TWP. : LOCATION
LON .                                          -81.489962 : LONGITUDE
SRVC.                                        SCHLUMBERGER : SERVICE COMPANY
STAT.                                                  OH : STATE
TLD .                                                4970 : TOTAL LOG DEPTH
TWP .                                               SALEM : TOWNSHIP
UWI .                                      34157253340000 : UWI NUMBER
WELL.      BELDEN BRICK UNIT (OHIO GEOLOGICAL SURVEY CO2) : WELL
WSTA.                                           PRODUCING : WELL STATUS
#
#MNEM UNIT API CODES                             DESCRIPTION                          
#---- ---- ---------   ---------------------------------------------------------------
~CURVE INFORMATION SECTION
DEPT.F              : DEPTH IN FEET
TENS.LBF            : CABLE TENSION {F13.4}
HTEM.DEGF           : HTC TEMPERATURE {F13.4}
GR  .GAPI           : GAMMA-RAY {F13.4}
NPHI.CFCF           : THERMAL NEUTRON POROSITY (RATIO METHOD) {F13.4}
HCAL.IN             : HRCC CAL. CALIPER {F13.4}
HDRA.G/C3           : HRDD DENSITY CORRECTION {F13.4}
PEFZ.B/E            : HRDD STANDARD RESOLUTION FORMATION PHOTOELECTRIC FACTOR {F13.4}
PEF8.B/E            : HRDD HIGH RESOLUTION FORMATION PHOTOELECTRIC FACTOR {F13.4}
RHOZ.G/C3           : HRDD STANDARD RESOLUTION FORMATION DENSITY {F13.4}
RHO8.G/C3           : HRDD HIGH RESOLUTION FORMATION DENSITY {F13.4}
DPHZ.CFCF           : HRDD STANDARD RESOLUTION DENSITY POROSITY {F13.4}
DPH8.CFCF           : HRDD HIGH RESOLUTION DENSITY POROSITY {F13.4}
HGR .GAPI           : HIRES GAMMA-RAY {F13.4}
HRM .OHMM           : HALS MUD RESISTIVITY {F13.4}
HLLS.OHMM           : HALS LATEROLOG SHALLOW RESISTIVITY {F13.4}
HLLD.OHMM           : HALS LATEROLOG DEEP RESISTIVITY {F13.4}
#
#    MNEM      UNIT  VALUE/NAME           DESCRIPTION       
#------------- ---- -------------   ------------------------
~PARAMETERS INFORMATION SECTION
APD          .F        12.000000 : ABOVE PERMANENT DATUM
EGROUND LEVEL.FT        917.0000 : 
EPD          .F       917.000000 : ELEVATION OF PERM. DATUM
LMF          .     KELLY BUSHING : LOG MEASURED FROM
PDAT         .      GROUND LEVEL : PERMANENT DATUM
RUN          .               ONE : RUN NUMBER
TD           .FT       4970.0000 : TOTAL DEPTH
WSTA         .               LOC : 
#
~OTHER INFORMATION SECTION
<DESCLOGPLOTSTART> NEURALOG PLOT DEFINITION
PLOTDEFVERSION: 3
LASFILE: S:\IMAGES\GEOPHYSRASTERLOGS\HOLDING_LAS\!WORKING FOLDER!\6_INCH_PEX_HA
DEPTHSCALE: 239.999996
RESOLUTION: 200
DEPTHLABELFREQ: 100.000000
HEAVYGRIDFREQ: 100.000000
MEDIUMGRIDFREQ: 50.000000
LIGHTGRIDFREQ: 10.000000
STARTTRACK:
LEFTX: 0.500000 INCH
RIGHTX: 3.000000 INCH
SCALETYPE: LINEAR
NUMCHARTDIVISIONS: 10
CURVE: GR 0.000000 150.000000 (255,0,0) LONG_DASH 2 Y
BACKUP: 150.000000 300.000000 (255,0,0) SOLID 2
BACKUP: -150.000000 0.000000 (255,0,0) SOLID 2
CURVE: HDRA -0.071900 2.642800 (255,131,0) SOLID 2 N
CURVE: PEFZ 2.124900 10.000000 (0,0,0) SOLID 2 N
CURVE: PEF8 1.984700 10.000000 (0,0,255) SOLID 2 N
CURVE: RHOZ 1.680700 4.434100 (0,131,131) SOLID 2 N
CURVE: RHO8 1.332600 4.628800 (255,0,255) SOLID 2 N
CURVE: DPHZ -1.008300 585.941500 (255,0,0) SOLID 2 N
CURVE: DPH8 -1.122100 585.941500 (255,131,0) SOLID 2 N
CURVE: HGR 11.070400 461.898600 (0,0,0) SOLID 2 N
CURVE: NPHI 0.200000 200.000000 (131,65,65) SOLID 2 Y
BACKUP: 200.000000 200000.000000 (131,65,65) SOLID 2
BACKUP: 0.000200 0.200000 (131,65,65) SOLID 2
ENDTRACK:
STARTTRACK:
LEFTX: 3.750000 INCH
RIGHTX: 8.750000 INCH
SCALETYPE: LOG
NUMCYCLES: 3
STARTCYCLE: 2
CURVE: HRM 0.200000 200.000000 (0,0,255) SOLID 2 N
CURVE: HLLS 0.200000 200.000000 (0,131,131) SOLID 2 N
CURVE: HLLD 0.200000 200.000000 (255,0,255) SOLID 2 N
ENDTRACK:
STARTTRACK:
LEFTX: 8.750000 INCH
RIGHTX: 11.250000 INCH
SCALETYPE: LINEAR
NUMCHARTDIVISIONS: 10
CURVE: HCAL 2.230300 15.927300 (255,0,0) SOLID 2 N
CURVE: TENS 864.000000 1950.000000 (0,131,131) SOLID 2 N
CURVE: HTEM 79.620100 103.334500 (255,0,255) SOLID 2 N
ENDTRACK:
<DESCLOGPLOTEND>
<DEPTHTRACK TYPE='REFERENCE' TRACK='1' LABEL='0' COLOR='0' HOR='0' />
<REFERENCE FONT='-96,0,-900,0,400,0,570491395,ARIAL NARROW' />
#
#  DEPT        TENS          HTEM          GR         NPHI        HCAL         HDRA          PEFZ          PEF8          RHOZ          RHO8          DPHZ         DPH8         HGR         HRM          HLLS           HLLD      
#--------- ------------- ------------ ------------ ----------- ----------- ------------- ------------- ------------- ------------- ------------- ------------ ------------ ------------ ---------- -------------- -------------- 
~ASCII LOG DATA
# ...
1145.0000 1015.00000000  81.41670000 126.62450000  0.36000000 11.17580000    0.88840000   10.00000000   10.00000000    3.76290000    3.73010000  -0.61570000  -0.59650000 109.49510000 0.09930000 60000.00000000   171.11420000 
1145.5000 1008.00000000  81.41670000 113.37830000  0.40700000 11.17580000    1.19570000   10.00000000   10.00000000    4.15980000    4.43420000  -0.84780000  -1.00830000 125.21190000 0.09930000 60000.00000000 60000.00000000 
1146.0000 1010.00000000  81.41670000 114.64010000  0.49520000 11.17580000    1.36410000   10.00000000   10.00000000    4.43410000    4.62880000  -1.00830000  -1.12210000 105.89700000 0.09900000 60000.00000000   343.88950000 
1146.5000 1009.00000000  81.41670000 112.87900000  0.56020000 11.17580000    1.28190000   10.00000000    9.98020000    4.33330000    4.10200000  -0.94930000  -0.81400000 115.52190000 0.09900000 60000.00000000   224.90530000 
1147.0000 1018.00000000  81.41670000 123.10650000  0.50230000 11.17580000    0.99110000   10.00000000    9.90770000    3.98660000    3.73040000  -0.74660000  -0.59670000 120.21770000 0.09890000    10.87170000     1.57510000 
1147.5000 1005.00000000  81.41670000 129.64100000  0.43490000 11.17580000    0.76760000   10.00000000    9.92250000    3.66140000    3.51480000  -0.55640000  -0.47070000 136.38150000 0.09890000     0.22820000     0.84480000 
1148.0000  999.00000000  81.41670000 135.13780000  0.36050000 11.17580000    0.68210000   10.00000000    9.93260000    3.52830000    3.50040000  -0.47850000  -0.46220000 135.14280000 0.09890000 60000.00000000     0.21010000 
1148.5000 1019.00000000  81.41670000 134.53620000  0.36180000 11.17580000    0.66580000   10.00000000   10.00000000    3.50130000    3.52060000  -0.46270000  -0.47410000 129.04610000 0.09900000     0.00540000 60000.00000000 
1149.0000 1012.00000000  81.41670000 131.44090000  0.41520000 11.17580000    0.66030000   10.00000000    9.97320000    3.50560000    3.51840000  -0.46530000  -0.47270000 133.16790000 0.09900000     0.00240000     0.03430000 
1149.5000 1002.00000000  81.41670000 132.12800000  0.39220000 11.17580000    0.65320000   10.00000000   10.00000000    3.50430000    3.49200000  -0.46450000  -0.45730000 124.79440000 0.09900000     0.00060000     0.00200000 
1150.0000 1019.00000000  81.41670000 130.32320000  0.38840000 11.17580000    0.64020000   10.00000000    9.94710000    3.49150000    3.48670000  -0.45700000  -0.45420000 135.43900000 0.09960000     0.04490000 19805.81050000 
1150.5000  999.00000000  81.77600000 126.88400000  0.30130000 11.20000000    0.64090000   10.00000000    9.89330000    3.46720000    3.45020000  -0.44280000  -0.43290000 128.71190000 0.09980000     0.00490000     0.01070000 
1151.0000 1008.00000000  81.77600000 121.77330000  0.30910000 11.17580000    0.63980000   10.00000000   10.00000000    3.44230000    3.43940000  -0.42820000  -0.42660000 117.17780000 0.09990000     0.00110000     0.00500000 
1151.5000 1008.00000000  81.41670000 115.86120000  0.24140000 11.17580000    0.63360000   10.00000000   10.00000000    3.42370000    3.41930000  -0.41740000  -0.41480000 116.36390000 0.09990000     0.00280000     0.00060000 
1152.0000  999.00000000  81.41670000 113.99780000  0.24010000 11.18790000    0.63180000   10.00000000    9.94310000    3.41660000    3.41340000  -0.41320000  -0.41130000 109.42930000 0.10000000     0.00010000 19973.01950000 
1152.5000 1021.00000000  81.77600000 111.93430000  0.25150000 11.20000000    0.63200000   10.00000000    9.98090000    3.42260000    3.42890000  -0.41670000  -0.42040000 107.48890000 0.10010000     0.00470000 19974.70120000 
1153.0000  991.00000000  81.41670000 118.85240000  0.29930000 11.20000000    0.63720000   10.00000000   10.00000000    3.43170000    3.43690000  -0.42200000  -0.42510000 112.75980000 0.10010000     0.00020000 20001.24220000 
1153.5000 1015.00000000  81.41670000 120.01990000  0.31340000 11.17580000    0.63620000   10.00000000    9.96790000    3.44120000    3.44170000  -0.42760000  -0.42790000 131.62120000 0.10010000 60000.00000000 20006.75390000 
1154.0000 1019.00000000  81.41670000 127.24220000  0.31260000 11.17580000    0.63260000   10.00000000   10.00000000    3.44470000    3.45330000  -0.42960000  -0.43470000 112.60500000 0.10010000 60000.00000000 20013.42380000 
1154.5000 1008.00000000  81.77600000 127.13860000  0.35860000 11.17580000    0.64590000   10.00000000    9.96860000    3.44860000    3.44670000  -0.43190000  -0.43080000 136.03920000 0.10010000     0.01070000 20022.28320000 
1155.0000 1023.00000000  81.41670000 129.16720000  0.41570000 11.20000000    0.65300000   10.00000000    9.98780000    3.45700000    3.47940000  -0.43680000  -0.44990000 132.77450000 0.10010000     0.00150000     0.00040000 
1155.5000 1003.00000000  81.41670000 124.69630000  0.42560000 11.20000000    0.65800000   10.00000000    9.97290000    3.46860000    3.45980000  -0.44370000  -0.43850000 118.25180000 0.10010000 20024.64260000 20024.64260000 
1156.0000 1015.00000000  81.41670000 128.30600000  0.40880000 11.20000000    0.63680000   10.00000000   10.00000000    3.47490000    3.47320000  -0.44730000  -0.44630000 119.98000000 0.10010000     0.00320000     0.00120000 
1156.5000 1009.00000000  81.41670000 136.94700000  0.38680000 11.17580000    0.61330000   10.00000000   10.00000000    3.46750000    3.47100000  -0.44300000  -0.44500000 141.59250000 0.10020000     0.00090000 20026.78910000 
1157.0000 1009.00000000  81.41670000 141.02620000  0.40480000 11.20000000    0.59220000   10.00000000    9.97860000    3.44980000    3.44210000  -0.43260000  -0.42810000 148.07980000 0.10020000     0.00060000     0.00000000 
1157.5000 1039.00000000  81.41670000 135.01000000  0.42650000 11.18790000    0.59670000   10.00000000    9.93360000    3.43280000    3.41780000  -0.42270000  -0.41390000 136.65830000 0.10020000 20035.90630000     0.00050000 
1158.0000  995.00000000  81.77600000 128.47560000  0.42770000 11.20000000    0.60980000   10.00000000    9.97290000    3.43170000    3.44900000  -0.42200000  -0.43220000 122.73710000 0.10020000 20038.35940000 20038.35940000 
1158.5000 1030.00000000  81.41670000 124.00940000  0.45710000 11.20000000    0.61870000   10.00000000   10.00000000    3.44740000    3.45180000  -0.43130000  -0.43380000 130.02640000 0.10020000 20038.56640000 18940.65820000 
1159.0000 1024.00000000  81.41670000 130.64650000  0.48160000 11.17580000    0.62410000   10.00000000   10.00000000    3.46440000    3.47900000  -0.44120000  -0.44970000 121.40410000 0.10030000     0.00010000 60000.00000000 
1159.5000 1018.00000000  81.41670000 130.45760000  0.48340000 11.17580000    0.63490000   10.00000000    9.97600000    3.46340000    3.45760000  -0.44060000  -0.43720000 137.62190000 0.10080000 20046.34570000 60000.00000000 
1160.0000 1045.00000000  81.77600000 137.03510000  0.45660000 11.20000000    0.64390000   10.00000000    9.91820000    3.44670000    3.44840000  -0.43080000  -0.43180000 126.35320000 0.10110000     0.00410000     0.05720000 
1160.5000 1001.00000000  81.77600000 139.12150000  0.40640000 11.20000000    0.64290000   10.00000000   10.00000000    3.43160000    3.41810000  -0.42200000  -0.41410000 140.45110000 0.10110000     0.00070000     0.01020000 
1161.0000 1035.00000000  81.41670000 134.11190000  0.44760000 11.20000000    0.63580000   10.00000000   10.00000000    3.43470000    3.42170000  -0.42380000  -0.41620000 151.14940000 0.10130000     0.00790000     0.00540000 
1161.5000 1005.00000000  81.41670000 127.92130000  0.49980000 11.20000000    0.64400000   10.00000000   10.00000000    3.45530000    3.46510000  -0.43580000  -0.44160000 107.80150000 0.10180000     0.00030000 20224.92770000 
1162.0000  994.00000000  81.41670000 121.60430000  0.55450000 11.20000000    0.64580000   10.00000000   10.00000000    3.48500000    3.50370000  -0.45320000  -0.46420000 122.79720000 0.10260000     0.00440000 20246.86520000 
1162.5000 1050.00000000  81.77600000 127.78820000  0.53030000 11.20000000    0.65200000   10.00000000   10.00000000    3.51200000    3.52560000  -0.46900000  -0.47700000 133.98180000 0.10260000     0.00080000     0.00060000 
