# LAS WORX (tm) v19.05.17 Header Hash (-8291391322489380521) Data Hash (-686710286087721855) DO NOT REMOVE THIS LINE
~VERSION INFORMATION SECTION
VERS. 2.00 : CWLS LOG ASCII STANDARD - VERSION 2.000000
WRAP. NO   : ONE LINE PER DEPTH STEP
#
#MNEM UNIT                   VALUE/NAME                            DESCRIPTION      
#---- ---- -----------------------------------------------   -----------------------
~WELL INFORMATION SECTION
STRT.F                                           875.0000 : START DEPTH
STOP.F                                          4970.0000 : STOP DEPTH
STEP.F                                             0.5000 : STEP
NULL.                                            -999.250 : NULL VALUE
API .                                      34157253340000 : API NUMBER
CNTY.                                          TUSCARAWAS : COUNTY
COMP.                  OHIO DIVISION OF GEOLOGICAL SURVEY : COMPANY
CTRY.                                                 USA : COUNTRY
DATE.                                            6/9/2007 : DATE
EPD .FT                                               927 : ELEVATION OF REF. DATUM
FILE.NM                         34157253340000_GND_PE_RES : FILE NAME
FLD .                                               SALEM : FIELD
GDAT.                                               NAD83 : GEODETIC DATUM
LAT .                                           40.353705 : LATITUDE
LOC .                             4360'NL & 70'EL OF TWP. : LOCATION
LON .                                          -81.489962 : LONGITUDE
SRVC.                                        SCHLUMBERGER : SERVICE COMPANY
STAT.                                                  OH : STATE
TLD .                                                4970 : TOTAL LOG DEPTH
TWP .                                               SALEM : TOWNSHIP
UWI .                                      34157253340000 : UWI NUMBER
WELL.      BELDEN BRICK UNIT (OHIO GEOLOGICAL SURVEY CO2) : WELL
WSTA.                                           PRODUCING : WELL STATUS
#
#MNEM UNIT API CODES                             DESCRIPTION                          
#---- ---- ---------   ---------------------------------------------------------------
~CURVE INFORMATION SECTION
DEPT.F              : DEPTH IN FEET
TENS.LBF            : CABLE TENSION {F13.4}
HTEM.DEGF           : HTC TEMPERATURE {F13.4}
GR  .GAPI           : GAMMA-RAY {F13.4}
NPHI.CFCF           : THERMAL NEUTRON POROSITY (RATIO METHOD) {F13.4}
HCAL.IN             : HRCC CAL. CALIPER {F13.4}
HDRA.G/C3           : HRDD DENSITY CORRECTION {F13.4}
PEFZ.B/E            : HRDD STANDARD RESOLUTION FORMATION PHOTOELECTRIC FACTOR {F13.4}
PEF8.B/E            : HRDD HIGH RESOLUTION FORMATION PHOTOELECTRIC FACTOR {F13.4}
RHOZ.G/C3           : HRDD STANDARD RESOLUTION FORMATION DENSITY {F13.4}
RHO8.G/C3           : HRDD HIGH RESOLUTION FORMATION DENSITY {F13.4}
DPHZ.CFCF           : HRDD STANDARD RESOLUTION DENSITY POROSITY {F13.4}
DPH8.CFCF           : HRDD HIGH RESOLUTION DENSITY POROSITY {F13.4}
HGR .GAPI           : HIRES GAMMA-RAY {F13.4}
HRM .OHMM           : HALS MUD RESISTIVITY {F13.4}
HLLS.OHMM           : HALS LATEROLOG SHALLOW RESISTIVITY {F13.4}
HLLD.OHMM           : HALS LATEROLOG DEEP RESISTIVITY {F13.4}
#
#    MNEM      UNIT  VALUE/NAME           DESCRIPTION       
#------------- ---- -------------   ------------------------
~PARAMETERS INFORMATION SECTION
APD          .F        12.000000 : ABOVE PERMANENT DATUM
EGROUND LEVEL.FT        917.0000 : 
EPD          .F       917.000000 : ELEVATION OF PERM. DATUM
LMF          .     KELLY BUSHING : LOG MEASURED FROM
PDAT         .      GROUND LEVEL : PERMANENT DATUM
RUN          .               ONE : RUN NUMBER
TD           .FT       4970.0000 : TOTAL DEPTH
WSTA         .               LOC : 
#
~OTHER INFORMATION SECTION
<DESCLOGPLOTSTART> NEURALOG PLOT DEFINITION
PLOTDEFVERSION: 3
LASFILE: S:\IMAGES\GEOPHYSRASTERLOGS\HOLDING_LAS\!WORKING FOLDER!\6_INCH_PEX_HA
DEPTHSCALE: 239.999996
RESOLUTION: 200
DEPTHLABELFREQ: 100.000000
HEAVYGRIDFREQ: 100.000000
MEDIUMGRIDFREQ: 50.000000
LIGHTGRIDFREQ: 10.000000
STARTTRACK:
LEFTX: 0.500000 INCH
RIGHTX: 3.000000 INCH
SCALETYPE: LINEAR
NUMCHARTDIVISIONS: 10
CURVE: GR 0.000000 150.000000 (255,0,0) LONG_DASH 2 Y
BACKUP: 150.000000 300.000000 (255,0,0) SOLID 2
BACKUP: -150.000000 0.000000 (255,0,0) SOLID 2
CURVE: HDRA -0.071900 2.642800 (255,131,0) SOLID 2 N
CURVE: PEFZ 2.124900 10.000000 (0,0,0) SOLID 2 N
CURVE: PEF8 1.984700 10.000000 (0,0,255) SOLID 2 N
CURVE: RHOZ 1.680700 4.434100 (0,131,131) SOLID 2 N
CURVE: RHO8 1.332600 4.628800 (255,0,255) SOLID 2 N
CURVE: DPHZ -1.008300 585.941500 (255,0,0) SOLID 2 N
CURVE: DPH8 -1.122100 585.941500 (255,131,0) SOLID 2 N
CURVE: HGR 11.070400 461.898600 (0,0,0) SOLID 2 N
CURVE: NPHI 0.200000 200.000000 (131,65,65) SOLID 2 Y
BACKUP: 200.000000 200000.000000 (131,65,65) SOLID 2
BACKUP: 0.000200 0.200000 (131,65,65) SOLID 2
ENDTRACK:
STARTTRACK:
LEFTX: 3.750000 INCH
RIGHTX: 8.750000 INCH
SCALETYPE: LOG
NUMCYCLES: 3
STARTCYCLE: 2
CURVE: HRM 0.200000 200.000000 (0,0,255) SOLID 2 N
CURVE: HLLS 0.200000 200.000000 (0,131,131) SOLID 2 N
CURVE: HLLD 0.200000 200.000000 (255,0,255) SOLID 2 N
ENDTRACK:
STARTTRACK:
LEFTX: 8.750000 INCH
RIGHTX: 11.250000 INCH
SCALETYPE: LINEAR
NUMCHARTDIVISIONS: 10
CURVE: HCAL 2.230300 15.927300 (255,0,0) SOLID 2 N
CURVE: TENS 864.000000 1950.000000 (0,131,131) SOLID 2 N
CURVE: HTEM 79.620100 103.334500 (255,0,255) SOLID 2 N
ENDTRACK:
<DESCLOGPLOTEND>
<DEPTHTRACK TYPE='REFERENCE' TRACK='1' LABEL='0' COLOR='0' HOR='0' />
<REFERENCE FONT='-96,0,-900,0,400,0,570491395,ARIAL NARROW' />
#
#  DEPT        TENS          HTEM          GR         NPHI        HCAL         HDRA          PEFZ          PEF8          RHOZ          RHO8          DPHZ         DPH8         HGR         HRM          HLLS           HLLD      
#--------- ------------- ------------ ------------ ----------- ----------- ------------- ------------- ------------- ------------- ------------- ------------ ------------ ------------ ---------- -------------- -------------- 
~ASCII LOG DATA
 875.0000  886.00000000  79.62010000 117.57530000  0.58480000  2.52120000    0.10710000   10.00000000   10.00000000    2.52260000    2.50960000   0.10960000   0.11720000 134.59240000 0.03930000     0.00030000     0.00340000 
 875.5000  886.00000000  79.62010000 117.57530000  0.58480000  2.52120000    0.10710000   10.00000000   10.00000000    2.52260000    2.50960000   0.10960000   0.11720000 134.59240000 0.03930000     0.00030000     0.00340000 
 876.0000  886.00000000  79.62010000 117.57530000  0.58480000  2.52120000    0.10710000   10.00000000   10.00000000    2.52260000    2.50960000   0.10960000   0.11720000 134.59240000 0.03930000     0.00030000     0.00340000 
 876.5000  886.00000000  79.62010000 117.57530000  0.58480000  2.52120000    0.10710000   10.00000000   10.00000000    2.52260000    2.50960000   0.10960000   0.11720000 134.59240000 0.03930000     0.00030000     0.00340000 
 877.0000  886.00000000  79.62010000 117.57530000  0.58480000  2.52120000    0.10710000   10.00000000   10.00000000    2.52260000    2.50960000   0.10960000   0.11720000 134.59240000 0.03930000     0.00030000     0.00340000 
 877.5000  886.00000000  79.62010000 117.57530000  0.58480000  2.52120000    0.10710000   10.00000000   10.00000000    2.52260000    2.50960000   0.10960000   0.11720000 134.59240000 0.03930000     0.00030000     0.00340000 
 878.0000  886.00000000  79.62010000 117.57530000  0.58480000  2.52120000    0.10710000   10.00000000   10.00000000    2.52260000    2.50960000   0.10960000   0.11720000 134.59240000 0.03930000     0.00030000     0.00340000 
 878.5000  889.00000000  79.62010000 117.57530000  0.58480000  2.49700000    0.10710000   10.00000000   10.00000000    2.52260000    2.50960000   0.10960000   0.11720000 113.21050000 0.03930000     0.00030000     0.00340000 
 879.0000  889.00000000  79.62010000 116.09910000  0.58480000  2.47270000    0.10710000   10.00000000   10.00000000    2.52260000    2.50960000   0.10960000   0.11720000  97.58170000 0.03940000     0.00030000     0.00340000 
 879.5000  881.00000000  79.62010000 125.67490000  0.54860000  2.47270000    0.10710000   10.00000000   10.00000000    2.52260000    2.50960000   0.10960000   0.11720000 138.31340000 0.03940000     0.00030000     0.00360000 
 880.0000  888.00000000  79.62010000 134.33990000  0.53030000  2.47270000    0.10710000   10.00000000   10.00000000    2.52260000    2.50960000   0.10960000   0.11720000 141.94440000 0.03940000     0.00020000     0.00340000 
 880.5000  891.00000000  79.62010000 131.13220000  0.52250000  2.47270000    0.10710000   10.00000000   10.00000000    2.52260000    2.50960000   0.10960000   0.11720000 123.88790000 0.03920000     0.00030000     0.00310000 
 881.0000  881.00000000  79.62010000 134.84650000  0.49720000  2.49700000    0.10710000   10.00000000   10.00000000    2.52260000    2.50960000   0.10960000   0.11720000 128.67400000 0.03920000     0.00040000     0.00320000 
 881.5000  894.00000000  79.62010000 146.45370000  0.47940000  2.47270000    0.10710000   10.00000000   10.00000000    2.52260000    2.50960000   0.10960000   0.11720000 146.78880000 0.03920000     0.00030000     0.00330000 
 882.0000  895.00000000  79.62010000 149.76460000  0.49120000  2.47270000    0.10710000   10.00000000   10.00000000    2.52260000    2.50960000   0.10960000   0.11720000 157.57420000 0.03920000     0.00040000     0.00320000 
 882.5000  889.00000000  79.97940000 142.84270000  0.57870000  2.47270000    0.10710000   10.00000000   10.00000000    2.52260000    2.50960000   0.10960000   0.11720000 140.72210000 0.03920000     0.00030000     0.00320000 
 883.0000  893.00000000  79.97940000 136.02650000  0.60330000  2.47270000    0.10710000   10.00000000   10.00000000    2.52260000    2.50960000   0.10960000   0.11720000 132.32300000 0.03910000     0.00040000     0.00320000 
 883.5000  892.00000000  79.62010000 126.88020000  0.59430000  2.49700000    0.10710000   10.00000000   10.00000000    2.52260000    2.50960000   0.10960000   0.11720000 137.08650000 0.03900000     0.00040000     0.00320000 
 884.0000  894.00000000  79.62010000 123.72360000  0.53520000  2.49700000    0.10710000   10.00000000   10.00000000    2.52260000    2.50960000   0.10960000   0.11720000 116.88780000 0.03900000     0.00030000     0.00320000 
 884.5000  908.00000000  79.62010000 111.66150000  0.50880000  2.47270000    0.10710000   10.00000000   10.00000000    2.52260000    2.50960000   0.10960000   0.11720000 122.84540000 0.03900000     0.00040000     0.00320000 
 885.0000  897.00000000  79.62010000 112.33160000  0.53110000  2.47270000    0.11500000   10.00000000    9.85000000    2.51390000    2.46410000   0.11470000   0.14380000  98.60610000 0.03900000     0.00030000     0.00310000 
 885.5000  893.00000000  79.62010000 108.39440000  0.54030000  2.47270000    0.11290000   10.00000000    9.86830000    2.48080000    2.44690000   0.13410000   0.15390000 113.21050000 0.03900000     0.00030000     0.00300000 
 886.0000  900.00000000  79.62010000 120.91510000  0.52600000  2.47270000    0.10580000   10.00000000    9.95560000    2.46220000    2.44840000   0.14490000   0.15300000 103.32840000 0.03900000     0.00030000     0.00310000 
 886.5000  901.00000000  79.97940000 128.48620000  0.49870000  2.47270000    0.09940000   10.00000000   10.00000000    2.45670000    2.45810000   0.14810000   0.14730000 138.50210000 0.03870000     0.00030000     0.00300000 
 887.0000  897.00000000  79.97940000 128.06020000  0.49220000  2.47270000    0.08830000   10.00000000    9.88570000    2.43930000    2.42140000   0.15830000   0.16880000 135.90910000 0.03870000     0.00040000     0.00310000 
 887.5000  901.00000000  79.62010000 127.20070000  0.47560000  2.47270000    0.07390000   10.00000000   10.00000000    2.41090000    2.40840000   0.17490000   0.17640000 113.04870000 0.03870000     0.00040000     0.00310000 
 888.0000  889.00000000  79.62010000 130.99420000  0.46600000  2.49700000    0.06390000   10.00000000    9.85770000    2.38990000    2.40460000   0.18720000   0.17860000 135.95410000 0.03870000     0.00030000     0.00310000 
 888.5000  897.00000000  79.97940000 137.71200000  0.44830000  2.47270000    0.06030000   10.00000000   10.00000000    2.38050000    2.39100000   0.19270000   0.18650000 145.55750000 0.03870000     0.00030000     0.00310000 
 889.0000  904.00000000  79.62010000 134.10340000  0.46210000  2.47270000    0.05620000   10.00000000   10.00000000    2.37450000    2.35670000   0.19620000   0.20660000 129.89630000 0.03880000     0.00030000     0.00300000 
 889.5000  902.00000000  79.62010000 136.99170000  0.51280000  2.47270000    0.05340000   10.00000000    9.95720000    2.37590000    2.36470000   0.19540000   0.20190000 125.11480000 0.03880000     0.00040000     0.00310000 
 890.0000  903.00000000  79.97940000 135.38790000  0.52690000  2.49700000    0.05490000   10.00000000   10.00000000    2.38780000    2.40220000   0.18840000   0.18000000 149.26610000 0.03880000     0.00030000     0.00320000 
 890.5000  892.00000000  79.97940000 134.12500000  0.54330000  2.47270000    0.06170000   10.00000000    9.98050000    2.40800000    2.40000000   0.17660000   0.18130000 125.10130000 0.03880000     0.00030000     0.00320000 
 891.0000  904.00000000  79.62010000 129.50710000  0.53790000  2.49700000    0.06440000   10.00000000    9.91700000    2.41450000    2.41160000   0.17280000   0.17450000 117.10980000 0.03880000     0.00040000     0.00310000 
 891.5000  897.00000000  79.97940000 135.87440000  0.48080000  2.47270000    0.06480000   10.00000000    9.93960000    2.41020000    2.43370000   0.17530000   0.16160000 142.11520000 0.03880000     0.00040000     0.00300000 
 892.0000  894.00000000  79.97940000 135.98500000  0.50600000  2.47270000    0.06970000   10.00000000   10.00000000    2.40930000    2.41110000   0.17590000   0.17480000 147.77750000 0.03870000     0.00030000     0.00300000 
 892.5000  894.00000000  79.97940000 125.19860000  0.43300000  2.47270000    0.07700000   10.00000000    9.95660000    2.41150000    2.42940000   0.17450000   0.16410000 121.64100000 0.03860000     0.00030000     0.00310000 
