# LAS WORX (tm) v19.05.17 Header Hash (-8291391322489380521) Data Hash (-686710286087721855) DO NOT REMOVE THIS LINE
~VERSION INFORMATION SECTION
VERS. 2.00 : CWLS LOG ASCII STANDARD - VERSION 2.000000
WRAP. NO   : ONE LINE PER DEPTH STEP
#
#MNEM UNIT                   VALUE/NAME                            DESCRIPTION      
#---- ---- -----------------------------------------------   -----------------------
~WELL INFORMATION SECTION
STRT.F                                           875.0000 : START DEPTH
STOP.F                                          4970.0000 : STOP DEPTH
STEP.F                                             0.5000 : STEP
NULL.                                            -999.250 : NULL VALUE
API .                                      34157253340000 : API NUMBER
CNTY.                                          TUSCARAWAS : COUNTY
COMP.                  OHIO DIVISION OF GEOLOGICAL SURVEY : COMPANY
CTRY.                                                 USA : COUNTRY
DATE.                                            6/9/2007 : DATE
EPD .FT                                               927 : ELEVATION OF REF. DATUM
FILE.NM                         34157253340000_GND_PE_RES : FILE NAME
FLD .                                               SALEM : FIELD
GDAT.                                               NAD83 : GEODETIC DATUM
LAT .                                           40.353705 : LATITUDE
LOC .                             4360'NL & 70'EL OF TWP. : LOCATION
LON .                                          -81.489962 : LONGITUDE
SRVC.                                        SCHLUMBERGER : SERVICE COMPANY
STAT.                                                  OH : STATE
TLD .                                                4970 : TOTAL LOG DEPTH
TWP .                                               SALEM : TOWNSHIP
UWI .                                      34157253340000 : UWI NUMBER
WELL.      BELDEN BRICK UNIT (OHIO GEOLOGICAL SURVEY CO2) : WELL
WSTA.                                           PRODUCING : WELL STATUS
#
#MNEM UNIT API CODES                             DESCRIPTION                          
#---- ---- ---------   ---------------------------------------------------------------
~CURVE INFORMATION SECTION
DEPT.F              : DEPTH IN FEET
TENS.LBF            : CABLE TENSION {F13.4}
HTEM.DEGF           : HTC TEMPERATURE {F13.4}
GR  .GAPI           : GAMMA-RAY {F13.4}
NPHI.CFCF           : THERMAL NEUTRON POROSITY (RATIO METHOD) {F13.4}
HCAL.IN             : HRCC CAL. CALIPER {F13.4}
HDRA.G/C3           : HRDD DENSITY CORRECTION {F13.4}
PEFZ.B/E            : HRDD STANDARD RESOLUTION FORMATION PHOTOELECTRIC FACTOR {F13.4}
PEF8.B/E            : HRDD HIGH RESOLUTION FORMATION PHOTOELECTRIC FACTOR {F13.4}
RHOZ.G/C3           : HRDD STANDARD RESOLUTION FORMATION DENSITY {F13.4}
RHO8.G/C3           : HRDD HIGH RESOLUTION FORMATION DENSITY {F13.4}
DPHZ.CFCF           : HRDD STANDARD RESOLUTION DENSITY POROSITY {F13.4}
DPH8.CFCF           : HRDD HIGH RESOLUTION DENSITY POROSITY {F13.4}
HGR .GAPI           : HIRES GAMMA-RAY {F13.4}
HRM .OHMM           : HALS MUD RESISTIVITY {F13.4}
HLLS.OHMM           : HALS LATEROLOG SHALLOW RESISTIVITY {F13.4}
HLLD.OHMM           : HALS LATEROLOG DEEP RESISTIVITY {F13.4}
#
#    MNEM      UNIT  VALUE/NAME           DESCRIPTION       
#------------- ---- -------------   ------------------------
~PARAMETERS INFORMATION SECTION
APD          .F        12.000000 : ABOVE PERMANENT DATUM
EGROUND LEVEL.FT        917.0000 : 
EPD          .F       917.000000 : ELEVATION OF PERM. DATUM
LMF          .     KELLY BUSHING : LOG MEASURED FROM
PDAT         .      GROUND LEVEL : PERMANENT DATUM
RUN          .               ONE : RUN NUMBER
TD           .FT       4970.0000 : TOTAL DEPTH
WSTA         .               LOC : 
#
~OTHER INFORMATION SECTION
<DESCLOGPLOTSTART> NEURALOG PLOT DEFINITION
PLOTDEFVERSION: 3
LASFILE: S:\IMAGES\GEOPHYSRASTERLOGS\HOLDING_LAS\!WORKING FOLDER!\6_INCH_PEX_HA
DEPTHSCALE: 239.999996
RESOLUTION: 200
DEPTHLABELFREQ: 100.000000
HEAVYGRIDFREQ: 100.000000
MEDIUMGRIDFREQ: 50.000000
LIGHTGRIDFREQ: 10.000000
STARTTRACK:
LEFTX: 0.500000 INCH
RIGHTX: 3.000000 INCH
SCALETYPE: LINEAR
NUMCHARTDIVISIONS: 10
CURVE: GR 0.000000 150.000000 (255,0,0) LONG_DASH 2 Y
BACKUP: 150.000000 300.000000 (255,0,0) SOLID 2
BACKUP: -150.000000 0.000000 (255,0,0) SOLID 2
CURVE: HDRA -0.071900 2.642800 (255,131,0) SOLID 2 N
CURVE: PEFZ 2.124900 10.000000 (0,0,0) SOLID 2 N
CURVE: PEF8 1.984700 10.000000 (0,0,255) SOLID 2 N
CURVE: RHOZ 1.680700 4.434100 (0,131,131) SOLID 2 N
CURVE: RHO8 1.332600 4.628800 (255,0,255) SOLID 2 N
CURVE: DPHZ -1.008300 585.941500 (255,0,0) SOLID 2 N
CURVE: DPH8 -1.122100 585.941500 (255,131,0) SOLID 2 N
CURVE: HGR 11.070400 461.898600 (0,0,0) SOLID 2 N
CURVE: NPHI 0.200000 200.000000 (131,65,65) SOLID 2 Y
BACKUP: 200.000000 200000.000000 (131,65,65) SOLID 2
BACKUP: 0.000200 0.200000 (131,65,65) SOLID 2
ENDTRACK:
STARTTRACK:
LEFTX: 3.750000 INCH
RIGHTX: 8.750000 INCH
SCALETYPE: LOG
NUMCYCLES: 3
STARTCYCLE: 2
CURVE: HRM 0.200000 200.000000 (0,0,255) SOLID 2 N
CURVE: HLLS 0.200000 200.000000 (0,131,131) SOLID 2 N
CURVE: HLLD 0.200000 200.000000 (255,0,255) SOLID 2 N
ENDTRACK:
STARTTRACK:
LEFTX: 8.750000 INCH
RIGHTX: 11.250000 INCH
SCALETYPE: LINEAR
NUMCHARTDIVISIONS: 10
CURVE: HCAL 2.230300 15.927300 (255,0,0) SOLID 2 N
CURVE: TENS 864.000000 1950.000000 (0,131,131) SOLID 2 N
CURVE: HTEM 79.620100 103.334500 (255,0,255) SOLID 2 N
ENDTRACK:
<DESCLOGPLOTEND>
<DEPTHTRACK TYPE='REFERENCE' TRACK='1' LABEL='0' COLOR='0' HOR='0' />
<REFERENCE FONT='-96,0,-900,0,400,0,570491395,ARIAL NARROW' />
#
#  DEPT        TENS          HTEM          GR         NPHI        HCAL         HDRA          PEFZ          PEF8          RHOZ          RHO8          DPHZ         DPH8         HGR         HRM          HLLS           HLLD      
#--------- ------------- ------------ ------------ ----------- ----------- ------------- ------------- ------------- ------------- ------------- ------------ ------------ ------------ ---------- -------------- -------------- 
~ASCII LOG DATA
# ...
1415.0000 1157.00000000  83.93180000 168.95050000  0.22030000 11.34550000    0.00800000    3.29260000    3.31560000    2.69710000    2.70200000   0.00750000   0.00470000 182.10870000 0.12130000    33.90010000    41.49260000 
1415.5000 1024.00000000  83.93180000 185.43600000  0.23000000 11.35760000    0.01630000    3.35550000    3.31410000    2.73160000    2.73280000  -0.01260000  -0.01330000 186.60480000 0.12130000    32.13750000    36.22130000 
1416.0000 1120.00000000  83.93180000 185.89020000  0.26800000 11.36970000    0.02750000    3.39060000    3.45170000    2.75360000    2.76470000  -0.02550000  -0.03200000 190.68700000 0.12130000    32.15490000    37.01870000 
1416.5000 1151.00000000  83.93180000 184.49040000  0.28840000 11.36970000    0.02510000    3.39130000    3.42210000    2.74850000    2.73930000  -0.02250000  -0.01710000 185.80280000 0.12130000    30.35460000    33.88840000 
1417.0000 1031.00000000  83.93180000 187.06820000  0.30360000 11.34550000    0.01540000    3.38430000    3.39960000    2.72540000    2.71480000  -0.00900000  -0.00280000 182.11460000 0.12130000    30.01570000    33.85320000 
1417.5000 1161.00000000  83.93180000 199.24800000  0.28460000 11.36970000    0.00070000    3.38610000    3.33310000    2.69840000    2.69640000   0.00680000   0.00790000 201.45950000 0.12130000    27.60830000    30.43410000 
1418.0000 1161.00000000  83.93180000 200.75200000  0.26220000 11.36970000   -0.00030000    3.38080000    3.35620000    2.69570000    2.70110000   0.00840000   0.00520000 222.63050000 0.12130000    26.56420000    27.26320000 
1418.5000 1062.00000000  83.93180000 194.49790000  0.25890000 11.36970000    0.00180000    3.38620000    3.44220000    2.69890000    2.71370000   0.00650000  -0.00220000 181.26030000 0.12130000    26.15760000    28.25290000 
1419.0000 1177.00000000  83.93180000 186.10130000  0.26610000 11.36970000    0.00650000    3.38900000    3.32760000    2.70840000    2.69890000   0.00090000   0.00650000 177.13710000 0.12130000    28.54440000    30.46610000 
1419.5000 1079.00000000  84.29110000 184.89810000  0.27480000 11.34550000    0.00660000    3.42860000    3.39820000    2.70490000    2.70540000   0.00300000   0.00270000 199.45320000 0.12130000    29.88500000    33.18700000 
1420.0000 1076.00000000  83.93180000 189.83670000  0.27700000 11.34550000    0.01010000    3.44900000    3.48530000    2.71250000    2.71980000  -0.00150000  -0.00570000 182.11160000 0.12130000    29.67480000    35.71560000 
1420.5000 1184.00000000  83.93180000 191.82850000  0.27630000 11.34550000    0.00620000    3.42980000    3.33770000    2.70410000    2.69610000   0.00340000   0.00810000 194.95120000 0.12130000    30.10220000    34.18390000 
1421.0000 1091.00000000  84.29110000 196.64150000  0.30440000 11.34550000    0.00500000    3.44990000    3.39190000    2.70240000    2.69650000   0.00440000   0.00790000 193.58740000 0.12120000    28.78640000    31.97580000 
1421.5000 1102.00000000  84.29110000 194.51780000  0.30160000 11.36970000    0.00080000    3.45880000    3.41130000    2.69930000    2.69800000   0.00630000   0.00700000 192.12500000 0.12110000    27.34140000    28.97020000 
1422.0000 1179.00000000  84.29110000 198.51600000  0.29910000 11.38180000    0.00200000    3.46900000    3.63570000    2.70900000    2.73240000   0.00060000  -0.01310000 180.96430000 0.12110000    26.37510000    28.65590000 
1422.5000 1062.00000000  83.93180000 199.54610000  0.29520000 11.39390000    0.00430000    3.42680000    3.38040000    2.72740000    2.73130000  -0.01020000  -0.01250000 212.19070000 0.12050000    25.81190000    27.73180000 
1423.0000 1119.00000000  84.29110000 201.36890000  0.28280000 11.39390000    0.00410000    3.38260000    3.34070000    2.73370000    2.73680000  -0.01390000  -0.01570000 202.39570000 0.12040000    26.31710000    28.54400000 
1423.5000 1156.00000000  84.29110000 196.75450000  0.28460000 11.36970000    0.00340000    3.36960000    3.34780000    2.73380000    2.71680000  -0.01390000  -0.00400000 189.66340000 0.12040000    26.66020000    28.96260000 
1424.0000 1050.00000000  84.29110000 202.34230000  0.26700000 11.36970000    0.00280000    3.36480000    3.40490000    2.72810000    2.72900000  -0.01060000  -0.01110000 198.23380000 0.12040000    27.20090000    30.03070000 
1424.5000 1142.00000000  84.29110000 209.86250000  0.26900000 11.39390000    0.00340000    3.34270000    3.35570000    2.72190000    2.72470000  -0.00700000  -0.00860000 215.80380000 0.12020000    26.81200000    28.72950000 
1425.0000 1126.00000000  84.29110000 213.98950000  0.26710000 11.36970000    0.00270000    3.34140000    3.39560000    2.70610000    2.71210000   0.00230000  -0.00120000 213.79450000 0.12020000    27.47710000    30.17580000 
1425.5000 1053.00000000  84.29110000 210.07900000  0.28080000 11.36970000    0.01120000    3.32170000    3.21250000    2.71040000    2.71830000  -0.00020000  -0.00490000 211.07640000 0.12000000    28.99500000    32.60570000 
1426.0000 1162.00000000  84.29110000 203.76140000  0.28410000 11.39390000    0.01520000    3.31780000    3.33830000    2.71330000    2.72110000  -0.00190000  -0.00650000 204.09190000 0.12000000    28.70940000    32.08790000 
1426.5000 1105.00000000  84.29110000 193.72050000  0.27290000 11.36970000    0.01710000    3.28330000    3.31320000    2.73030000    2.71360000  -0.01190000  -0.00210000 191.61480000 0.12000000    28.20560000    32.10330000 
1427.0000 1084.00000000  84.29110000 187.98710000  0.25120000 11.34550000    0.00730000    3.31670000    3.18860000    2.71800000    2.70030000  -0.00470000   0.00570000 179.69690000 0.11990000    27.98230000    29.55680000 
1427.5000 1163.00000000  83.93180000 180.16670000  0.23130000 11.32120000    0.01500000    3.36400000    3.53830000    2.73370000    2.76230000  -0.01390000  -0.03060000 184.98880000 0.11990000    30.61320000    34.50970000 
1428.0000 1124.00000000  84.29110000 177.76440000  0.23030000 11.29700000    0.01860000    3.39060000    3.32630000    2.73660000    2.73550000  -0.01560000  -0.01490000 170.81750000 0.11990000    31.30070000    34.96440000 
1428.5000 1110.00000000  84.29110000 181.09130000  0.22980000 11.34550000    0.01640000    3.42400000    3.27950000    2.72030000    2.72720000  -0.00600000  -0.01010000 176.24930000 0.11990000    31.88760000    36.61330000 
1429.0000 1106.00000000  83.93180000 183.13490000  0.25120000 11.34550000    0.00020000    3.48870000    3.32330000    2.68120000    2.70290000   0.01680000   0.00410000 193.32930000 0.11990000    29.52080000    32.92780000 
1429.5000 1134.00000000  84.29110000 190.04930000  0.25370000 11.34550000   -0.00770000    3.61660000    3.65720000    2.65560000    2.64890000   0.03180000   0.03580000 181.79330000 0.11980000    28.77760000    32.15450000 
1430.0000 1155.00000000  84.29110000 193.18340000  0.25420000 11.34550000   -0.00640000    3.65520000    3.63000000    2.66520000    2.67450000   0.02620000   0.02080000 192.53040000 0.11980000    27.04220000    28.98560000 
1430.5000 1113.00000000  84.29110000 196.55440000  0.23530000 11.34550000   -0.00380000    3.62370000    3.75050000    2.67640000    2.68620000   0.01970000   0.01390000 209.63240000 0.11980000    28.12840000    33.82230000 
1431.0000 1067.00000000  84.29110000 195.65200000  0.25000000 11.34550000   -0.00220000    3.54370000    3.49440000    2.68260000    2.67910000   0.01600000   0.01810000 184.48400000 0.11980000    28.19870000    31.50680000 
1431.5000 1149.00000000  84.29110000 189.87880000  0.23760000 11.34550000   -0.00060000    3.46110000    3.43870000    2.68920000    2.69980000   0.01220000   0.00600000 191.63110000 0.11980000    28.93500000    33.65260000 
1432.0000 1142.00000000  84.29110000 194.09010000  0.23630000 11.36970000   -0.00720000    3.42640000    3.39550000    2.68910000    2.68830000   0.01220000   0.01270000 191.82460000 0.11980000    28.54280000    31.50790000 
1432.5000 1115.00000000  84.29110000 199.14570000  0.22360000 11.39390000   -0.01570000    3.37840000    3.41870000    2.69490000    2.68900000   0.00880000   0.01230000 203.37570000 0.11970000    28.16260000    31.41130000 
