# LAS WORX (tm) v19.05.17 Header Hash (-8291391322489380521) Data Hash (-686710286087721855) DO NOT REMOVE THIS LINE
~VERSION INFORMATION SECTION
VERS. 2.00 : CWLS LOG ASCII STANDARD - VERSION 2.000000
WRAP. NO   : ONE LINE PER DEPTH STEP
#
#MNEM UNIT                   VALUE/NAME                            DESCRIPTION      
#---- ---- -----------------------------------------------   -----------------------
~WELL INFORMATION SECTION
STRT.F                                           875.0000 : START DEPTH
STOP.F                                          4970.0000 : STOP DEPTH
STEP.F                                             0.5000 : STEP
NULL.                                            -999.250 : NULL VALUE
API .                                      34157253340000 : API NUMBER
CNTY.                                          TUSCARAWAS : COUNTY
COMP.                  OHIO DIVISION OF GEOLOGICAL SURVEY : COMPANY
CTRY.                                                 USA : COUNTRY
DATE.                                            6/9/2007 : DATE
EPD .FT                                               927 : ELEVATION OF REF. DATUM
FILE.NM                         34157253340000_GND_PE_RES : FILE NAME
FLD .                                               SALEM : FIELD
GDAT.                                               NAD83 : GEODETIC DATUM
LAT .                                           40.353705 : LATITUDE
LOC .                             4360'NL & 70'EL OF TWP. : LOCATION
LON .                                          -81.489962 : LONGITUDE
SRVC.                                        SCHLUMBERGER : SERVICE COMPANY
STAT.                                                  OH : STATE
TLD .                                                4970 : TOTAL LOG DEPTH
TWP .                                               SALEM : TOWNSHIP
UWI .                                      34157253340000 : UWI NUMBER
WELL.      BELDEN BRICK UNIT (OHIO GEOLOGICAL SURVEY CO2) : WELL
WSTA.                                           PRODUCING : WELL STATUS
#
#MNEM UNIT API CODES                             DESCRIPTION                          
#---- ---- ---------   ---------------------------------------------------------------
~CURVE INFORMATION SECTION
DEPT.F              : DEPTH IN FEET
TENS.LBF            : CABLE TENSION {F13.4}
HTEM.DEGF           : HTC TEMPERATURE {F13.4}
GR  .GAPI           : GAMMA-RAY {F13.4}
NPHI.CFCF           : THERMAL NEUTRON POROSITY (RATIO METHOD) {F13.4}
HCAL.IN             : HRCC CAL. CALIPER {F13.4}
HDRA.G/C3           : HRDD DENSITY CORRECTION {F13.4}
PEFZ.B/E            : HRDD STANDARD RESOLUTION FORMATION PHOTOELECTRIC FACTOR {F13.4}
PEF8.B/E            : HRDD HIGH RESOLUTION FORMATION PHOTOELECTRIC FACTOR {F13.4}
RHOZ.G/C3           : HRDD STANDARD RESOLUTION FORMATION DENSITY {F13.4}
RHO8.G/C3           : HRDD HIGH RESOLUTION FORMATION DENSITY {F13.4}
DPHZ.CFCF           : HRDD STANDARD RESOLUTION DENSITY POROSITY {F13.4}
DPH8.CFCF           : HRDD HIGH RESOLUTION DENSITY POROSITY {F13.4}
HGR .GAPI           : HIRES GAMMA-RAY {F13.4}
HRM .OHMM           : HALS MUD RESISTIVITY {F13.4}
HLLS.OHMM           : HALS LATEROLOG SHALLOW RESISTIVITY {F13.4}
HLLD.OHMM           : HALS LATEROLOG DEEP RESISTIVITY {F13.4}
#
#    MNEM      UNIT  VALUE/NAME           DESCRIPTION       
#------------- ---- -------------   ------------------------
~PARAMETERS INFORMATION SECTION
APD          .F        12.000000 : ABOVE PERMANENT DATUM
EGROUND LEVEL.FT        917.0000 : 
EPD          .F       917.000000 : ELEVATION OF PERM. DATUM
LMF          .     KELLY BUSHING : LOG MEASURED FROM
PDAT         .      GROUND LEVEL : PERMANENT DATUM
RUN          .               ONE : RUN NUMBER
TD           .FT       4970.0000 : TOTAL DEPTH
WSTA         .               LOC : 
#
~OTHER INFORMATION SECTION
<DESCLOGPLOTSTART> NEURALOG PLOT DEFINITION
PLOTDEFVERSION: 3
LASFILE: S:\IMAGES\GEOPHYSRASTERLOGS\HOLDING_LAS\!WORKING FOLDER!\6_INCH_PEX_HA
DEPTHSCALE: 239.999996
RESOLUTION: 200
DEPTHLABELFREQ: 100.000000
HEAVYGRIDFREQ: 100.000000
MEDIUMGRIDFREQ: 50.000000
LIGHTGRIDFREQ: 10.000000
STARTTRACK:
LEFTX: 0.500000 INCH
RIGHTX: 3.000000 INCH
SCALETYPE: LINEAR
NUMCHARTDIVISIONS: 10
CURVE: GR 0.000000 150.000000 (255,0,0) LONG_DASH 2 Y
BACKUP: 150.000000 300.000000 (255,0,0) SOLID 2
BACKUP: -150.000000 0.000000 (255,0,0) SOLID 2
CURVE: HDRA -0.071900 2.642800 (255,131,0) SOLID 2 N
CURVE: PEFZ 2.124900 10.000000 (0,0,0) SOLID 2 N
CURVE: PEF8 1.984700 10.000000 (0,0,255) SOLID 2 N
CURVE: RHOZ 1.680700 4.434100 (0,131,131) SOLID 2 N
CURVE: RHO8 1.332600 4.628800 (255,0,255) SOLID 2 N
CURVE: DPHZ -1.008300 585.941500 (255,0,0) SOLID 2 N
CURVE: DPH8 -1.122100 585.941500 (255,131,0) SOLID 2 N
CURVE: HGR 11.070400 461.898600 (0,0,0) SOLID 2 N
CURVE: NPHI 0.200000 200.000000 (131,65,65) SOLID 2 Y
BACKUP: 200.000000 200000.000000 (131,65,65) SOLID 2
BACKUP: 0.000200 0.200000 (131,65,65) SOLID 2
ENDTRACK:
STARTTRACK:
LEFTX: 3.750000 INCH
RIGHTX: 8.750000 INCH
SCALETYPE: LOG
NUMCYCLES: 3
STARTCYCLE: 2
CURVE: HRM 0.200000 200.000000 (0,0,255) SOLID 2 N
CURVE: HLLS 0.200000 200.000000 (0,131,131) SOLID 2 N
CURVE: HLLD 0.200000 200.000000 (255,0,255) SOLID 2 N
ENDTRACK:
STARTTRACK:
LEFTX: 8.750000 INCH
RIGHTX: 11.250000 INCH
SCALETYPE: LINEAR
NUMCHARTDIVISIONS: 10
CURVE: HCAL 2.230300 15.927300 (255,0,0) SOLID 2 N
CURVE: TENS 864.000000 1950.000000 (0,131,131) SOLID 2 N
CURVE: HTEM 79.620100 103.334500 (255,0,255) SOLID 2 N
ENDTRACK:
<DESCLOGPLOTEND>
<DEPTHTRACK TYPE='REFERENCE' TRACK='1' LABEL='0' COLOR='0' HOR='0' />
<REFERENCE FONT='-96,0,-900,0,400,0,570491395,ARIAL NARROW' />
#
#  DEPT        TENS          HTEM          GR         NPHI        HCAL         HDRA          PEFZ          PEF8          RHOZ          RHO8          DPHZ         DPH8         HGR         HRM          HLLS           HLLD      
#--------- ------------- ------------ ------------ ----------- ----------- ------------- ------------- ------------- ------------- ------------- ------------ ------------ ------------ ---------- -------------- -------------- 
~ASCII LOG DATA
# ...
2783.0000 1397.00000000  96.86690000 186.14150000  0.28580000 11.22420000    0.00100000    3.75700000    3.62660000    2.73130000    2.72970000  -0.01240000  -0.01150000 187.31250000 0.10590000    25.09030000    28.57800000 
2783.5000 1368.00000000  96.50760000 196.06820000  0.31440000 11.23640000    0.00270000    3.79900000    3.99140000    2.74370000    2.75950000  -0.01970000  -0.02900000 199.83970000 0.10590000    24.60290000    28.01900000 
2784.0000 1363.00000000  96.50760000 196.84170000  0.29250000 11.22420000    0.00360000    3.86910000    3.80730000    2.75370000    2.73120000  -0.02550000  -0.01240000 197.27560000 0.10590000    23.72420000    26.65770000 
2784.5000 1415.00000000  96.50760000 201.11230000  0.29600000 11.24850000    0.00490000    3.92910000    3.79490000    2.76530000    2.78560000  -0.03230000  -0.04420000 194.35920000 0.10590000    24.28110000    27.61060000 
2785.0000 1402.00000000  96.86690000 215.02440000  0.27170000 11.24850000    0.00500000    3.89120000    4.36570000    2.76460000    2.77300000  -0.03190000  -0.03680000 212.99460000 0.10590000    24.98280000    28.99750000 
2785.5000 1358.00000000  96.50760000 230.79540000  0.28000000 11.24850000    0.00760000    3.82050000    3.62950000    2.76040000    2.75220000  -0.02950000  -0.02470000 241.58090000 0.10590000    24.78790000    27.09260000 
2786.0000 1371.00000000  96.50760000 228.38890000  0.27280000 11.22420000    0.00700000    3.71820000    3.70430000    2.74150000    2.73860000  -0.01840000  -0.01670000 239.06410000 0.10590000    25.33510000    30.24370000 
2786.5000 1403.00000000  96.86690000 213.87450000  0.28800000 11.24850000    0.00670000    3.66870000    3.59980000    2.72900000    2.70900000  -0.01110000   0.00060000 210.20140000 0.10590000    25.56310000    29.28610000 
2787.0000 1396.00000000  96.86690000 198.83400000  0.30540000 11.24850000    0.00630000    3.66490000    3.72330000    2.71730000    2.73740000  -0.00430000  -0.01600000 195.11030000 0.10590000    27.18730000    32.29690000 
2787.5000 1372.00000000  96.50760000 215.98010000  0.30140000 11.24850000    0.01040000    3.70380000    3.66020000    2.71630000    2.72170000  -0.00370000  -0.00680000 195.74910000 0.10590000    25.19980000    28.97200000 
2788.0000 1374.00000000  96.50760000 239.78040000  0.33490000 11.24850000    0.01040000    3.72480000    3.71430000    2.70160000    2.69070000   0.00490000   0.01130000 250.67830000 0.10590000    26.61500000    32.33950000 
2788.5000 1410.00000000  96.86690000 264.44670000  0.33940000 11.24850000    0.01120000    3.72400000    3.83020000    2.69660000    2.67750000   0.00780000   0.01900000 267.65950000 0.10570000    26.26740000    31.74170000 
2789.0000 1396.00000000  96.86690000 264.60420000  0.36290000 11.24850000    0.00440000    3.73470000    3.59290000    2.67940000    2.67470000   0.01790000   0.02070000 269.45570000 0.10570000    28.93910000    37.91200000 
2789.5000 1381.00000000  96.50760000 236.59320000  0.32170000 11.22420000    0.00410000    3.69310000    3.89780000    2.69660000    2.69970000   0.00790000   0.00600000 257.28360000 0.10570000    25.17940000    30.93970000 
2790.0000 1402.00000000  96.50760000 215.23580000  0.29730000 11.24850000   -0.00010000    3.63160000    3.54870000    2.70180000    2.72160000   0.00480000  -0.00680000 181.62930000 0.10570000    26.52220000    34.14610000 
2790.5000 1415.00000000  96.86690000 198.13170000  0.28910000 11.24850000    0.00100000    3.53610000    3.54790000    2.71710000    2.72080000  -0.00410000  -0.00630000 201.30310000 0.10570000    24.86950000    28.81670000 
2791.0000 1386.00000000  96.86690000 207.15600000  0.32490000 11.24850000   -0.00260000    3.55520000    3.61070000    2.70280000    2.71080000   0.00420000  -0.00050000 208.27330000 0.10570000    26.08250000    32.66770000 
2791.5000 1379.00000000  96.86690000 208.00020000  0.34920000 11.24850000   -0.00430000    3.55360000    3.35830000    2.69700000    2.69810000   0.00760000   0.00700000 213.00360000 0.10570000    25.52000000    31.51440000 
2792.0000 1401.00000000  96.50760000 208.03710000  0.32640000 11.24850000   -0.00510000    3.60720000    3.53810000    2.69720000    2.68530000   0.00750000   0.01440000 210.28260000 0.10570000    25.30170000    30.94340000 
2792.5000 1419.00000000  96.86690000 205.63070000  0.28070000 11.22420000   -0.00130000    3.63620000    3.52620000    2.71590000    2.72420000  -0.00340000  -0.00830000 205.92220000 0.10570000    26.31490000    32.95810000 
2793.0000 1392.00000000  96.86690000 201.50360000  0.27030000 11.22420000    0.00390000    3.75680000    3.98380000    2.72590000    2.74270000  -0.00930000  -0.01910000 201.33330000 0.10570000    27.13320000    36.41740000 
2793.5000 1347.00000000  96.50760000 194.34860000  0.27750000 11.23640000    0.00650000    3.78010000    3.77670000    2.72540000    2.71630000  -0.00900000  -0.00370000 195.42770000 0.10570000    28.44620000    39.09380000 
2794.0000 1370.00000000  96.50760000 198.54580000  0.30170000 11.22420000    0.00530000    3.78330000    3.80220000    2.70860000    2.69910000   0.00080000   0.00640000 185.72070000 0.10570000    27.29560000    34.93880000 
2794.5000 1422.00000000  96.50760000 204.53590000  0.30970000 11.22420000   -0.00110000    3.77720000    3.53980000    2.67930000    2.70600000   0.01800000   0.00230000 217.10030000 0.10570000    26.22520000    33.58100000 
2795.0000 1432.00000000  96.86690000 215.35960000  0.32830000 11.24850000   -0.00200000    3.75760000    3.51680000    2.67440000    2.66860000   0.02080000   0.02420000 208.16640000 0.10570000    24.97570000    32.16180000 
2795.5000 1395.00000000  96.86690000 211.16240000  0.32200000 11.24850000   -0.00100000    3.76120000    3.81540000    2.68040000    2.68750000   0.01730000   0.01320000 218.83690000 0.10570000    24.07760000    32.15690000 
2796.0000 1389.00000000  96.50760000 201.23570000  0.29380000 11.22420000    0.00120000    3.73700000    3.67820000    2.69620000    2.70400000   0.00810000   0.00350000 202.56380000 0.10560000    24.99480000    32.35870000 
2796.5000 1400.00000000  96.86690000 192.37130000  0.27940000 11.24850000    0.00050000    3.72750000    3.79280000    2.70120000    2.71050000   0.00510000  -0.00030000 180.89720000 0.10560000    27.59290000    36.98820000 
2797.0000 1403.00000000  97.22620000 192.97290000  0.29960000 11.23640000   -0.00050000    3.68570000    3.72430000    2.70030000    2.69710000   0.00570000   0.00750000 185.78080000 0.10560000    27.43850000    36.62050000 
2797.5000 1401.00000000  97.22620000 203.80200000  0.33590000 11.22420000    0.00380000    3.69820000    3.51840000    2.68580000    2.69770000   0.01410000   0.00720000 206.98480000 0.10550000    26.60410000    34.98000000 
2798.0000 1390.00000000  96.86690000 204.76470000  0.33530000 11.24850000    0.00420000    3.76590000    3.50230000    2.67030000    2.67490000   0.02320000   0.02050000 214.11770000 0.10540000    25.30250000    32.51650000 
2798.5000 1396.00000000  96.50760000 193.93560000  0.29670000 11.22420000    0.00530000    3.79820000    3.86030000    2.67570000    2.68330000   0.02000000   0.01560000 193.50240000 0.10540000    26.79170000    35.13640000 
2799.0000 1422.00000000  96.86690000 178.44500000  0.26990000 11.22420000   -0.00060000    3.81100000    3.80430000    2.68450000    2.69890000   0.01490000   0.00650000 174.89650000 0.10540000    29.73840000    40.85820000 
2799.5000 1397.00000000  96.86690000 184.84810000  0.26090000 11.23640000    0.00070000    3.71520000    3.75030000    2.70170000    2.70560000   0.00480000   0.00250000 170.95300000 0.10540000    31.13870000    42.99820000 
2800.0000 1387.00000000  96.50760000 200.22670000  0.25910000 11.24850000    0.00220000    3.63390000    3.55090000    2.70010000    2.70910000   0.00580000   0.00050000 212.59210000 0.10530000    29.56220000    39.40470000 
2800.5000 1402.00000000  96.50760000 223.53830000  0.30790000 11.24850000    0.00570000    3.47570000    3.37790000    2.70690000    2.69440000   0.00180000   0.00910000 220.00980000 0.10530000    26.86220000    34.93500000 
